{"type":"FeatureCollection","features":[{"type":"Feature","geometry":{"type":"Point","coordinates":[13.071552,26.698932,0]},"properties":{"name":"بحيرة بن عتي","description":"بحيرة بن عتي‎","styleUrl":"#icon-503-DB4436-labelson","icon-opacity":1,"icon-color":"#db4436","icon-scale":1.1,"icon-offset":[16,32],"icon-offset-units":["pixels","insetPixels"],"icon":"https://www.gstatic.com/mapspro/images/stock/503-wht-blank_maps.png"}},{"type":"Feature","geometry":{"type":"Point","coordinates":[13.312769,26.692538,0]},"properties":{"name":"بحيرة مندرة","description":"بحيرة مندرة : بحيرة جافة ‎‎","styleUrl":"#icon-503-DB4436-labelson","icon-opacity":1,"icon-color":"#db4436","icon-scale":1.1,"icon-offset":[16,32],"icon-offset-units":["pixels","insetPixels"],"icon":"https://www.gstatic.com/mapspro/images/stock/503-wht-blank_maps.png"}},{"type":"Feature","geometry":{"type":"Point","coordinates":[13.334806,26.710462,0]},"properties":{"name":"بحيرة أم الماء","description":"بحيرة ام الماء‎","styleUrl":"#icon-503-DB4436-labelson","icon-opacity":1,"icon-color":"#db4436","icon-scale":1.1,"icon-offset":[16,32],"icon-offset-units":["pixels","insetPixels"],"icon":"https://www.gstatic.com/mapspro/images/stock/503-wht-blank_maps.png"}},{"type":"Feature","geometry":{"type":"Point","coordinates":[13.39345,26.688915,0]},"properties":{"name":"بحيرة محروقة أولغلغ ","description":"بحيرة محروقة‎‎","styleUrl":"#icon-503-DB4436-labelson","icon-opacity":1,"icon-color":"#db4436","icon-scale":1.1,"icon-offset":[16,32],"icon-offset-units":["pixels","insetPixels"],"icon":"https://www.gstatic.com/mapspro/images/stock/503-wht-blank_maps.png"}},{"type":"Feature","geometry":{"type":"Point","coordinates":[13.422933,26.716634,0]},"properties":{"name":"بحيرة قيعان","description":"بحيرة قيعان أو الدويسة‎‎‎","styleUrl":"#icon-503-DB4436-labelson","icon-opacity":1,"icon-color":"#db4436","icon-scale":1.1,"icon-offset":[16,32],"icon-offset-units":["pixels","insetPixels"],"icon":"https://www.gstatic.com/mapspro/images/stock/503-wht-blank_maps.png"}},{"type":"Feature","geometry":{"type":"Point","coordinates":[13.457823,26.759751,0]},"properties":{"name":"بحيرة لغلغ","description":"بحيرة لغلغ‎","styleUrl":"#icon-503-DB4436-labelson","icon-opacity":1,"icon-color":"#db4436","icon-scale":1.1,"icon-offset":[16,32],"icon-offset-units":["pixels","insetPixels"],"icon":"https://www.gstatic.com/mapspro/images/stock/503-wht-blank_maps.png"}},{"type":"Feature","geometry":{"type":"Point","coordinates":[13.472425,26.770786,0]},"properties":{"name":"بحيرة تمزيز","description":"‎‎","styleUrl":"#icon-503-DB4436-labelson","icon-opacity":1,"icon-color":"#db4436","icon-scale":1.1,"icon-offset":[16,32],"icon-offset-units":["pixels","insetPixels"],"icon":"https://www.gstatic.com/mapspro/images/stock/503-wht-blank_maps.png"}},{"type":"Feature","geometry":{"type":"Point","coordinates":[13.507283,26.787625,0]},"properties":{"name":"بحيرة مافو","description":"بحيرة مافو‎","styleUrl":"#icon-503-DB4436-labelson","icon-opacity":1,"icon-color":"#db4436","icon-scale":1.1,"icon-offset":[16,32],"icon-offset-units":["pixels","insetPixels"],"icon":"https://www.gstatic.com/mapspro/images/stock/503-wht-blank_maps.png"}},{"type":"Feature","geometry":{"type":"Point","coordinates":[13.537946,26.803714,0]},"properties":{"name":"بحيرة قبر عون","description":"بحيرة قبرعون‎","styleUrl":"#icon-503-DB4436-labelson","icon-opacity":1,"icon-color":"#db4436","icon-scale":1.1,"icon-offset":[16,32],"icon-offset-units":["pixels","insetPixels"],"icon":"https://www.gstatic.com/mapspro/images/stock/503-wht-blank_maps.png"}},{"type":"Feature","geometry":{"type":"Point","coordinates":[13.499772,26.891952,0]},"properties":{"name":"بحيرة تنقرزان","description":"بحيرة تنقرزان‎","styleUrl":"#icon-503-DB4436-labelson","icon-opacity":1,"icon-color":"#db4436","icon-scale":1.1,"icon-offset":[16,32],"icon-offset-units":["pixels","insetPixels"],"icon":"https://www.gstatic.com/mapspro/images/stock/503-wht-blank_maps.png"}},{"type":"Feature","geometry":{"type":"Point","coordinates":[13.480546,26.914072,0]},"properties":{"name":"بحيرة أم الحصان","description":"بحيرة أم الحصان‎‎","styleUrl":"#icon-503-DB4436-labelson","icon-opacity":1,"icon-color":"#db4436","icon-scale":1.1,"icon-offset":[16,32],"icon-offset-units":["pixels","insetPixels"],"icon":"https://www.gstatic.com/mapspro/images/stock/503-wht-blank_maps.png"}},{"type":"Feature","geometry":{"type":"Point","coordinates":[13.485332,26.775154,0]},"properties":{"name":"بحيرة تامزيا","description":"بحيرة تامزيا‎","styleUrl":"#icon-503-DB4436-labelson","icon-opacity":1,"icon-color":"#db4436","icon-scale":1.1,"icon-offset":[16,32],"icon-offset-units":["pixels","insetPixels"],"icon":"https://www.gstatic.com/mapspro/images/stock/503-wht-blank_maps.png"}},{"type":"Feature","geometry":{"type":"Point","coordinates":[13.586226,26.851307,0]},"properties":{"name":"بحيرة البحير","description":"بحيرة البحير‎","styleUrl":"#icon-503-DB4436-labelson","icon-opacity":1,"icon-color":"#db4436","icon-scale":1.1,"icon-offset":[16,32],"icon-offset-units":["pixels","insetPixels"],"icon":"https://www.gstatic.com/mapspro/images/stock/503-wht-blank_maps.png"}},{"type":"Feature","geometry":{"type":"Point","coordinates":[12.977815,26.944854,0]},"properties":{"name":"بحيرة العنبة","description":"بحيرة العنبة‎","styleUrl":"#icon-503-DB4436-labelson","icon-opacity":1,"icon-color":"#db4436","icon-scale":1.1,"icon-offset":[16,32],"icon-offset-units":["pixels","insetPixels"],"icon":"https://www.gstatic.com/mapspro/images/stock/503-wht-blank_maps.png"}},{"type":"Feature","geometry":{"type":"Point","coordinates":[13.166771,26.562505,0]},"properties":{"name":"تويوة","description":"تويوة‎","styleUrl":"#icon-503-DB4436-labelson","icon-opacity":1,"icon-color":"#db4436","icon-scale":1.1,"icon-offset":[16,32],"icon-offset-units":["pixels","insetPixels"],"icon":"https://www.gstatic.com/mapspro/images/stock/503-wht-blank_maps.png"}},{"type":"Feature","geometry":{"type":"Point","coordinates":[13.210158,26.554021,0]},"properties":{"name":"قراقرة","description":"قراقرة‎","styleUrl":"#icon-503-DB4436-labelson","icon-opacity":1,"icon-color":"#db4436","icon-scale":1.1,"icon-offset":[16,32],"icon-offset-units":["pixels","insetPixels"],"icon":"https://www.gstatic.com/mapspro/images/stock/503-wht-blank_maps.png"}},{"type":"Feature","geometry":{"type":"Point","coordinates":[13.243461,26.559818,0]},"properties":{"name":"قصر لاركو","description":"قصر لاركو‎","styleUrl":"#icon-503-DB4436-labelson","icon-opacity":1,"icon-color":"#db4436","icon-scale":1.1,"icon-offset":[16,32],"icon-offset-units":["pixels","insetPixels"],"icon":"https://www.gstatic.com/mapspro/images/stock/503-wht-blank_maps.png"}},{"type":"Feature","geometry":{"type":"Point","coordinates":[13.125486,26.562159,0]},"properties":{"name":"الفخافخة","description":"الفخافخة‎","styleUrl":"#icon-503-DB4436-labelson","icon-opacity":1,"icon-color":"#db4436","icon-scale":1.1,"icon-offset":[16,32],"icon-offset-units":["pixels","insetPixels"],"icon":"https://www.gstatic.com/mapspro/images/stock/503-wht-blank_maps.png"}},{"type":"Feature","geometry":{"type":"Point","coordinates":[13.11347,26.55429,0]},"properties":{"name":"بريك","description":"بريك‎","styleUrl":"#icon-503-DB4436-labelson","icon-opacity":1,"icon-color":"#db4436","icon-scale":1.1,"icon-offset":[16,32],"icon-offset-units":["pixels","insetPixels"],"icon":"https://www.gstatic.com/mapspro/images/stock/503-wht-blank_maps.png"}},{"type":"Feature","geometry":{"type":"Point","coordinates":[13.098021,26.54166,0]},"properties":{"name":"توش","description":"توش‎","styleUrl":"#icon-503-DB4436-labelson","icon-opacity":1,"icon-color":"#db4436","icon-scale":1.1,"icon-offset":[16,32],"icon-offset-units":["pixels","insetPixels"],"icon":"https://www.gstatic.com/mapspro/images/stock/503-wht-blank_maps.png"}},{"type":"Feature","geometry":{"type":"Point","coordinates":[13.076177,26.531255,0]},"properties":{"name":"جرمة","description":"جرمة‎","styleUrl":"#icon-503-DB4436-labelson","icon-opacity":1,"icon-color":"#db4436","icon-scale":1.1,"icon-offset":[16,32],"icon-offset-units":["pixels","insetPixels"],"icon":"https://www.gstatic.com/mapspro/images/stock/503-wht-blank_maps.png"}},{"type":"Feature","geometry":{"type":"Point","coordinates":[14.178117,32.709632,0]},"properties":{"name":"فيلا سيلين","styleUrl":"#icon-503-DB4436-labelson-nodesc","icon-opacity":1,"icon-color":"#db4436","icon-scale":1.1,"icon-offset":[16,32],"icon-offset-units":["pixels","insetPixels"],"icon":"https://www.gstatic.com/mapspro/images/stock/503-wht-blank_maps.png"}},{"type":"Feature","geometry":{"type":"Point","coordinates":[14.054614,32.722093,0]},"properties":{"name":"قرية غنيمة السياحية","styleUrl":"#icon-503-DB4436-labelson-nodesc","icon-opacity":1,"icon-color":"#db4436","icon-scale":1.1,"icon-offset":[16,32],"icon-offset-units":["pixels","insetPixels"],"icon":"https://www.gstatic.com/mapspro/images/stock/503-wht-blank_maps.png"}},{"type":"Feature","geometry":{"type":"Point","coordinates":[13.994839,32.745139,0]},"properties":{"name":"جزيرة المعيقل أو الحمام - بسيس","description":"وهي عبارة عن صخرة مستطيلة الشكل، ترتفع عشرات الأمتار فوق مستوى سطح البحر، وتبلغ مساحتها نحو 600 متر مربع.‎","styleUrl":"#icon-503-DB4436-labelson","icon-opacity":1,"icon-color":"#db4436","icon-scale":1.1,"icon-offset":[16,32],"icon-offset-units":["pixels","insetPixels"],"icon":"https://www.gstatic.com/mapspro/images/stock/503-wht-blank_maps.png"}},{"type":"Feature","geometry":{"type":"Point","coordinates":[13.698621,32.791351,0]},"properties":{"name":"شط فم الوادي","styleUrl":"#icon-503-DB4436-labelson-nodesc","icon-opacity":1,"icon-color":"#db4436","icon-scale":1.1,"icon-offset":[16,32],"icon-offset-units":["pixels","insetPixels"],"icon":"https://www.gstatic.com/mapspro/images/stock/503-wht-blank_maps.png"}},{"type":"Feature","geometry":{"type":"Point","coordinates":[13.704886,32.790016,0]},"properties":{"name":"وادي المسيد أو وادي الرمل","styleUrl":"#icon-503-DB4436-labelson-nodesc","icon-opacity":1,"icon-color":"#db4436","icon-scale":1.1,"icon-offset":[16,32],"icon-offset-units":["pixels","insetPixels"],"icon":"https://www.gstatic.com/mapspro/images/stock/503-wht-blank_maps.png"}},{"type":"Feature","geometry":{"type":"Point","coordinates":[13.595624,32.789493,0]},"properties":{"name":"وادي سيدي بنور","styleUrl":"#icon-503-DB4436-labelson-nodesc","icon-opacity":1,"icon-color":"#db4436","icon-scale":1.1,"icon-offset":[16,32],"icon-offset-units":["pixels","insetPixels"],"icon":"https://www.gstatic.com/mapspro/images/stock/503-wht-blank_maps.png"}},{"type":"Feature","geometry":{"type":"Point","coordinates":[13.675232,32.788772,0]},"properties":{"name":"قرية العطايا السياحية","styleUrl":"#icon-503-DB4436-labelson-nodesc","icon-opacity":1,"icon-color":"#db4436","icon-scale":1.1,"icon-offset":[16,32],"icon-offset-units":["pixels","insetPixels"],"icon":"https://www.gstatic.com/mapspro/images/stock/503-wht-blank_maps.png"}},{"type":"Feature","geometry":{"type":"Point","coordinates":[13.027607,32.828286,0]},"properties":{"name":"متحف ومقبرة جنزور الأثرية","styleUrl":"#icon-503-DB4436-labelson-nodesc","icon-opacity":1,"icon-color":"#db4436","icon-scale":1.1,"icon-offset":[16,32],"icon-offset-units":["pixels","insetPixels"],"icon":"https://www.gstatic.com/mapspro/images/stock/503-wht-blank_maps.png"}},{"type":"Feature","geometry":{"type":"Point","coordinates":[20.132747,32.168783,0]},"properties":{"name":"منتزه بودزيرة","styleUrl":"#icon-503-DB4436-labelson-nodesc","icon-opacity":1,"icon-color":"#db4436","icon-scale":1.1,"icon-offset":[16,32],"icon-offset-units":["pixels","insetPixels"],"icon":"https://www.gstatic.com/mapspro/images/stock/503-wht-blank_maps.png"}},{"type":"Feature","geometry":{"type":"Point","coordinates":[13.737502,32.791865,0]},"properties":{"name":"شاطىء القربوللي","description":"شط رملي جيد للاصطياف، على خلفية تحفها الأشجار والشجيرات","styleUrl":"#icon-503-DB4436-labelson","icon-opacity":1,"icon-color":"#db4436","icon-scale":1.1,"icon-offset":[16,32],"icon-offset-units":["pixels","insetPixels"],"icon":"https://www.gstatic.com/mapspro/images/stock/503-wht-blank_maps.png"}},{"type":"Feature","geometry":{"type":"Point","coordinates":[19.902388,30.791359,0]},"properties":{"name":"جزيرة الحبري أو قارة","description":{"@type":"html","value":"جزيرة صغيرة تبعد عن البر الرئيسي نحو 7 كيلومترات، وتبلغ مساحتها نحو 2.5 هكتار، تنمو بها بعض النباتات، وتحفها شواطىء رملية‎‎‎، وهي جزيرة صغيرة نسبياً، تتشكل أراضيها من الحجر الرملي ، مع المنحدرات الرملية المنخفضة، وبعض التلال المحيطة، و الصخور المتناثرة التي تتخللها بعض النباتات المحلية التي تنمو على الصخور الرملية، والحد الأقصى لارتفاع الجزيرة يبلغ 8 متر فوق مستوى سطح البحر.‎‎كما تعتبر الجزيرة من أهم مواقع استراحة الطيور المهاجرة.<br>وصنفت الجزيرة كموطناً لطائر الخطاف المتوج، الذي يقصد الجزيرة في شهر أغسطس للتعشيش، وقد أُعلن أن جزيرة الحبري محمية بحرية طبيعية للأسماك والقشريات والرخويات والنباتات والطيور البحرية والطيور البحرية وخاصة الخطاف المتوج المهدد بالإنقراض.<br>‎"},"styleUrl":"#icon-503-DB4436-labelson","icon-opacity":1,"icon-color":"#db4436","icon-scale":1.1,"icon-offset":[16,32],"icon-offset-units":["pixels","insetPixels"],"icon":"https://www.gstatic.com/mapspro/images/stock/503-wht-blank_maps.png"}},{"type":"Feature","geometry":{"type":"Point","coordinates":[22.501202,32.838527,0]},"properties":{"name":"جزيرة كرسة","description":"جزيرة صغيرة تبلغ مساحتها نحو 400 متر مربع تقريباً، وتبعد عن الساحل نحو 3 كيلومترات.","styleUrl":"#icon-503-DB4436-labelson","icon-opacity":1,"icon-color":"#db4436","icon-scale":1.1,"icon-offset":[16,32],"icon-offset-units":["pixels","insetPixels"],"icon":"https://www.gstatic.com/mapspro/images/stock/503-wht-blank_maps.png"}},{"type":"Feature","geometry":{"type":"Point","coordinates":[17.8563563,30.9235198,0]},"properties":{"name":"جزيرة العويجة","description":{"@type":"html","value":"<img src=\"https://lh3.googleusercontent.com/umsh/AN6v0v6M2gKOdV2ViLbasvHiI1w7o86dbtPoZUk89TOp98W_cnZGoI40Iiwh8OV0X9sODTJ5KQBgF4MAxZOL7msOpN_lm0FDChZOlFHqfIBaQ9uzkJB-WsWGOrV_bgz52z6mA8uMlLX3G1MOy36jp0ZHspvYokZtVqlu7T4ADC0fQ6J6iGHSD905htrYGfGfGrKz1vETVVqvvXzzRqmGkU91dO85V0v1_KkyKujYOJZ5A3yhXmu-7iCv1H7vb_3mi-fNurC9OVJbGCULU7CC5f6ySwAHId-OFpzkl647jg06bY7LuXEmsJVmf7T2iiWFF74wsUEk1cjK-6tnpj2DlIpJVGzArJZHlbpmZq3OUYt7KEatmNCEDjds13Ow3nDpeUjyqQ4j8WMkM5Ac7Pgu-JB7RJ9mDauQgHHZGvgrkPOQU7JdKbnmwAW2K0g\" height=\"200\" width=\"auto\" /><br><br>"},"styleUrl":"#icon-503-DB4436-labelson","icon-opacity":1,"icon-color":"#db4436","icon-scale":1.1,"icon-offset":[16,32],"icon-offset-units":["pixels","insetPixels"],"icon":"https://www.gstatic.com/mapspro/images/stock/503-wht-blank_maps.png","gx_media_links":"https://lh3.googleusercontent.com/umsh/AN6v0v6M2gKOdV2ViLbasvHiI1w7o86dbtPoZUk89TOp98W_cnZGoI40Iiwh8OV0X9sODTJ5KQBgF4MAxZOL7msOpN_lm0FDChZOlFHqfIBaQ9uzkJB-WsWGOrV_bgz52z6mA8uMlLX3G1MOy36jp0ZHspvYokZtVqlu7T4ADC0fQ6J6iGHSD905htrYGfGfGrKz1vETVVqvvXzzRqmGkU91dO85V0v1_KkyKujYOJZ5A3yhXmu-7iCv1H7vb_3mi-fNurC9OVJbGCULU7CC5f6ySwAHId-OFpzkl647jg06bY7LuXEmsJVmf7T2iiWFF74wsUEk1cjK-6tnpj2DlIpJVGzArJZHlbpmZq3OUYt7KEatmNCEDjds13Ow3nDpeUjyqQ4j8WMkM5Ac7Pgu-JB7RJ9mDauQgHHZGvgrkPOQU7JdKbnmwAW2K0g"}},{"type":"Feature","geometry":{"type":"Point","coordinates":[19.122088,30.291541,0]},"properties":{"name":"جزيرة العقيلة أو بوشويفة","description":"جزيرة صغيرة تبلغ مساحتها 220 متر مربع.‎","styleUrl":"#icon-503-DB4436-labelson","icon-opacity":1,"icon-color":"#db4436","icon-scale":1.1,"icon-offset":[16,32],"icon-offset-units":["pixels","insetPixels"],"icon":"https://www.gstatic.com/mapspro/images/stock/503-wht-blank_maps.png"}},{"type":"Feature","geometry":{"type":"Point","coordinates":[21.120315,32.763315,0]},"properties":{"name":"عين الملكة","description":{"@type":"html","value":"<img src=\"https://lh3.googleusercontent.com/umsh/AN6v0v521X7O9_ZwxfpxuSZLu-8vaoz4wtmMzG7bog9dxcPnGpEcGuBIUCeH0bOnVH04I-PzIwJHKunkeLYSADpEoPs9pcZm_OQLMdcizhjmFcAJVMQR_CskP6RHAOloYJc4-HgIeVoQGBGdNo36VChMYX6oc2ytM--VMjDsygqrDDwWBAx-7dv3X1tPH0reE8UMJYco2dgc0mSYKYmqnA2uRunsoY13c_VZNs7ejUXfG8aoO9U4SWr_fXxDqeX9dIT2mN0RQY-vJH5-R1_XQsG3jpqLPzpfFPYeiXBP9-ln0s0k_zH5P3kfyw3i17kOlOUZIih14Nl21NoCo_bjyw4x1XJNyC1L6JnYVRb2RCqxa7bvTWlyndUADpNyGmbOPNAI48yGXp_c5s1iYyDOS63jN_a3ZyJkneB4I6Quf_pBbxs0p996-X_kDXOcuYmlXp7RtfBsfPMdwven0vGXntJ12GH6tqhxr1miCVeJ\" height=\"200\" width=\"auto\" /><br><br>"},"styleUrl":"#icon-503-DB4436-labelson","icon-opacity":1,"icon-color":"#db4436","icon-scale":1.1,"icon-offset":[16,32],"icon-offset-units":["pixels","insetPixels"],"icon":"https://www.gstatic.com/mapspro/images/stock/503-wht-blank_maps.png","gx_media_links":"https://lh3.googleusercontent.com/umsh/AN6v0v521X7O9_ZwxfpxuSZLu-8vaoz4wtmMzG7bog9dxcPnGpEcGuBIUCeH0bOnVH04I-PzIwJHKunkeLYSADpEoPs9pcZm_OQLMdcizhjmFcAJVMQR_CskP6RHAOloYJc4-HgIeVoQGBGdNo36VChMYX6oc2ytM--VMjDsygqrDDwWBAx-7dv3X1tPH0reE8UMJYco2dgc0mSYKYmqnA2uRunsoY13c_VZNs7ejUXfG8aoO9U4SWr_fXxDqeX9dIT2mN0RQY-vJH5-R1_XQsG3jpqLPzpfFPYeiXBP9-ln0s0k_zH5P3kfyw3i17kOlOUZIih14Nl21NoCo_bjyw4x1XJNyC1L6JnYVRb2RCqxa7bvTWlyndUADpNyGmbOPNAI48yGXp_c5s1iYyDOS63jN_a3ZyJkneB4I6Quf_pBbxs0p996-X_kDXOcuYmlXp7RtfBsfPMdwven0vGXntJ12GH6tqhxr1miCVeJ"}},{"type":"Feature","geometry":{"type":"Point","coordinates":[21.117783,32.769667,0]},"properties":{"name":"شاطىء الملكة","description":"شاطىء صخري جيد لهواة القفز والغطس.","styleUrl":"#icon-503-DB4436-labelson","icon-opacity":1,"icon-color":"#db4436","icon-scale":1.1,"icon-offset":[16,32],"icon-offset-units":["pixels","insetPixels"],"icon":"https://www.gstatic.com/mapspro/images/stock/503-wht-blank_maps.png"}},{"type":"Feature","geometry":{"type":"Point","coordinates":[21.117783,32.769811,0]},"properties":{"name":"شاطىء الملكة","description":"شاطىء صخري، جيد لهواة الغطس، كما تتميز المنطقة بوجود غطاء نباتي كثيف، من الأشجار المثمرة.‎","styleUrl":"#icon-503-DB4436-labelson","icon-opacity":1,"icon-color":"#db4436","icon-scale":1.1,"icon-offset":[16,32],"icon-offset-units":["pixels","insetPixels"],"icon":"https://www.gstatic.com/mapspro/images/stock/503-wht-blank_maps.png"}},{"type":"Feature","geometry":{"type":"Point","coordinates":[20.138111,32.160028,0]},"properties":{"name":"بحيرة المقارين","styleUrl":"#icon-503-DB4436-labelson-nodesc","icon-opacity":1,"icon-color":"#db4436","icon-scale":1.1,"icon-offset":[16,32],"icon-offset-units":["pixels","insetPixels"],"icon":"https://www.gstatic.com/mapspro/images/stock/503-wht-blank_maps.png"}},{"type":"Feature","geometry":{"type":"Point","coordinates":[20.140815,32.165368,0]},"properties":{"name":"بحيرة بوقصبة","styleUrl":"#icon-503-DB4436-labelson-nodesc","icon-opacity":1,"icon-color":"#db4436","icon-scale":1.1,"icon-offset":[16,32],"icon-offset-units":["pixels","insetPixels"],"icon":"https://www.gstatic.com/mapspro/images/stock/503-wht-blank_maps.png"}},{"type":"Feature","geometry":{"type":"Point","coordinates":[21.089201,32.765733,0]},"properties":{"name":"شاطىء الملكة","styleUrl":"#icon-503-DB4436-labelson-nodesc","icon-opacity":1,"icon-color":"#db4436","icon-scale":1.1,"icon-offset":[16,32],"icon-offset-units":["pixels","insetPixels"],"icon":"https://www.gstatic.com/mapspro/images/stock/503-wht-blank_maps.png"}},{"type":"Feature","geometry":{"type":"Point","coordinates":[21.089158,32.765805,0]},"properties":{"name":"شاطىء الملكة","description":"شاطىء صخري، جيد لهواة الغطس، كما تتميز المنطقة بوجود غطاء نباتي كثيف، من الأشجار المثمرة.‎","styleUrl":"#icon-503-DB4436-labelson","icon-opacity":1,"icon-color":"#db4436","icon-scale":1.1,"icon-offset":[16,32],"icon-offset-units":["pixels","insetPixels"],"icon":"https://www.gstatic.com/mapspro/images/stock/503-wht-blank_maps.png"}},{"type":"Feature","geometry":{"type":"Point","coordinates":[20.55066,32.369168,0]},"properties":{"name":"وادي زازا‎‎","description":{"@type":"html","value":"<img src=\"https://lh3.googleusercontent.com/umsh/AN6v0v5k1oaevl8_zM-iLrGTLK6h3JkKMf8H7m2iX4V-A8xGsxyxUxpU_VhHBHZdSsWQpsX1ZOpQW1pA_gb6qkP8-aywg99Pzp-jmNOckpycVM_eoobkhBCncs1as_HfinndAuRdw3VHmWcuFsh7_3wt5dpW4tmYgnqRizY83LH-eGXnJEZURj6Rq8w-vr-Q80QTAmT1XD4CKQK4mK4X_z5MPw97sBTYNV7ncCU6-Q9t-9JCl8KF3UfZI0fTwJtSrV4l1VQvog0v08c9d-f24IAfrhjKgfqWToi1_Xww-Z7LTMuTKuQR_csaqe4TmqXBnSCz0L78DFaLMaNHa6akN3RStwuCy5f5AbNDkC1pLSTpx6Dw6vxrxpRjYIkhot24ls-NtYQGGZfV2X4YSfh4vEMCpAzJQ1o2ViLGL-MU4Fh6LkVwDtbVRN07NhiVNx3lMO9JGlA\" height=\"200\" width=\"auto\" /><br><br>يقع الوادي على مسافة 60 كم شرق مدينة بنغازي، وحوالي 10 كم جنوب قرية المبني، و يمتد أكثر من 100 كم جنوبا، ويوجد به سد ضخم يعتبر الوادي من أكبر الاودية الواقعة غرب الباكور.<br>يحتوي الوادي على مجموعة من رسوم ونقوش ماقبل التاريخ، على جدران كهفين؛ يعرف الأول بكهف (الطيور) او حجف القطارة، رسم على جدرانه مشاهد مجموعة من الطيور ذات مناقير طويلة، تنتمي إلى عصر الرعاة، جنباً إلى جنب مع رسم غزال، وبعض النقوش الإغريقية تعدد أسماء أشخاص مثل اسم أديداس، كاليماخوس وديديموس وأريماس وخاريلاس، وأخرى من أصل لاتيني مثل بوبليوس وبروكلوس، اقدمها يرجع الى القرن الثالث ق.م. وبعضها يرجع الى العصر الروماني ، ربما نقشت لاسباب دينية حيث لايوجد دليل ان الكهف قد استعمل للسكن او للدفن ، وعلى خلاف ذلك ربما كان الكهف مكان للتعبد.<br>أما كهف (النعامة) فقد استعمل في العصرين الإغريقي والروماني، والرسوم المرسومة على جدرانه أكثر وضوحًا وحفظًا ، كما أنها تتميز بكبر حجمها، وتنتمي إلى فترتين، الأولى التي ربما ترجع إلى عصر الرعاة، وتمثلت نقوشها في حيوانات متنوعة من بينها نعامة في حالة عدو، إلى جانب بقرة خلفها عجل يركض نحوها، ومشهد بقرة أخرى، إضافة إلى ثلاث غزلان إحداها صغير، يلاحظ وجود بعض الطيور وحيوانات أخرى منقوشة ولكنها غير واضحة.<br>وتصور الرسوم المنتمية إلى فترة الحصان التي بدأت منذ منتصف الالف الثانية ق.م، حصان عليه سرج ، وكلب ، وذئب و رسم لجندي يحمل سيف وترس ، ويعد هذا الرسم اول ظهور للاشكال الآدمية في الرسوم الصخرية في شرق ليبيا. <br>‎"},"styleUrl":"#icon-503-DB4436-labelson","icon-opacity":1,"icon-color":"#db4436","icon-scale":1.1,"icon-offset":[16,32],"icon-offset-units":["pixels","insetPixels"],"icon":"https://www.gstatic.com/mapspro/images/stock/503-wht-blank_maps.png","gx_media_links":"https://lh3.googleusercontent.com/umsh/AN6v0v5k1oaevl8_zM-iLrGTLK6h3JkKMf8H7m2iX4V-A8xGsxyxUxpU_VhHBHZdSsWQpsX1ZOpQW1pA_gb6qkP8-aywg99Pzp-jmNOckpycVM_eoobkhBCncs1as_HfinndAuRdw3VHmWcuFsh7_3wt5dpW4tmYgnqRizY83LH-eGXnJEZURj6Rq8w-vr-Q80QTAmT1XD4CKQK4mK4X_z5MPw97sBTYNV7ncCU6-Q9t-9JCl8KF3UfZI0fTwJtSrV4l1VQvog0v08c9d-f24IAfrhjKgfqWToi1_Xww-Z7LTMuTKuQR_csaqe4TmqXBnSCz0L78DFaLMaNHa6akN3RStwuCy5f5AbNDkC1pLSTpx6Dw6vxrxpRjYIkhot24ls-NtYQGGZfV2X4YSfh4vEMCpAzJQ1o2ViLGL-MU4Fh6LkVwDtbVRN07NhiVNx3lMO9JGlA"}},{"type":"Feature","geometry":{"type":"Point","coordinates":[20.545642,32.375975,0]},"properties":{"name":"سد وادي زازا","styleUrl":"#icon-503-DB4436-labelson-nodesc","icon-opacity":1,"icon-color":"#db4436","icon-scale":1.1,"icon-offset":[16,32],"icon-offset-units":["pixels","insetPixels"],"icon":"https://www.gstatic.com/mapspro/images/stock/503-wht-blank_maps.png"}},{"type":"Feature","geometry":{"type":"Point","coordinates":[22.179376,32.865868,0]},"properties":{"name":"شلال بالفو","styleUrl":"#icon-503-DB4436-labelson-nodesc","icon-opacity":1,"icon-color":"#db4436","icon-scale":1.1,"icon-offset":[16,32],"icon-offset-units":["pixels","insetPixels"],"icon":"https://www.gstatic.com/mapspro/images/stock/503-wht-blank_maps.png"}},{"type":"Feature","geometry":{"type":"Point","coordinates":[21.396275,32.631075,0]},"properties":{"name":"الكنيسة الشرقية","styleUrl":"#icon-503-DB4436-labelson-nodesc","icon-opacity":1,"icon-color":"#db4436","icon-scale":1.1,"icon-offset":[16,32],"icon-offset-units":["pixels","insetPixels"],"icon":"https://www.gstatic.com/mapspro/images/stock/503-wht-blank_maps.png"}},{"type":"Feature","geometry":{"type":"Point","coordinates":[21.349249,32.732588,0]},"properties":{"name":"هوا هيتيني‎‎‎‎‎‎","description":{"@type":"html","value":"<img src=\"https://lh3.googleusercontent.com/umsh/AN6v0v4j1nhg6f-QEie-XC7XR6dRohZMTrxOtC1kvS0dAatcxAmYjN_0MCizO6tOk_HmCRIVELgRxbRxYoib1kj1zrrs4K2YLxZGRaIoIgW8w_gRQOKdmArEUC1rD82_SOP0et7YVyXJ6aJ3p6DfLbTs2e_Nwlc04PoR5g8Bpd1bzWy2ZcmS7Sl1xtTdCnWYLk_jKoEgurAEDjb-VrPHrwXxSFnwJIjEODmMOow_DoOtGnx3IyalcMH4zzOQvcmbkPUvu8GAcH6h0DyAUHSv2iClPDzkMO_gKsWG0iJfbJfxv43OAZN6bLjsbHCC_ywHovJNdsvRkBibYTUIcRqkrsbVD3aa0TWx1E-9xJU6VTRyPABorWPyO2lweWxK10TpN_RNKO_mfdraR0IoGx6hBlPbVYF_YzlOy90HT312-ti2zJ3ZZJRe_XiX3oDH1mAswRjXLzDD7S_VPFRRYuaZUvlj-D2ozSPWwVXlBnUWLN7IjE4KBsu0dFoOnD_ZH-3ux53rg9wm2OZCuxT9nYkiDay-eSRODESjrJYIXiLf_VHxJLo6sB8iVhv8FGg1HbiU9hAtdv5Cy-TeDF1251eu0qBdIBDejUNu4zzgM87Ya2sRCReOre-cfRTyL8OsgHRFTuxyyw8zKL83Jt16QAhxpFGQw2snLAaPETuyXbsJlQec10HzftXOEUWAqm3cNoknGM4-qyuC69igirvkSRELHxrKvbhA5cmFpSrtDJpztL6eQ3u10bvH2s37-Y2S5NG3HEixFyBjBvXPH1-mdxO15JnqstUKLHMwKVuejBZIqcpyKQX8UBVb_l63-SYSxSHhgwg8jVCMrwOgf-ER8oSWzQk\" height=\"200\" width=\"auto\" /><br><br>يبرز (هوا هيتيني) في منطقه ميراد مسعود، ضمن مجموعة حفر كارستية أو كهوف عمودية، ناجمة عن التحلل الصخري فوق أو في باطن الأرض، التي تظهر  في المناطق المتكونة من الصخور الجيرية (الكارستية) القابلة للذوبان، والتي تسهم وبشكل كبير في ظهور حفر رأسية ضخمة على سطح نتيجة توسيع الشقوق والفواصل والكسور وذوبان وتفتت الصخور الجيرية.<br>ويبلغ محيط هوا هيتيني نحو 100 متر، ويصل إليه عبر طريق غير معبد يربط بين منطقتي قصر ليبيا و شواطىء، جرجار امه<br>، وحول الاسم يروي السكان المحليون أن رجل حاول الهبوط إلى الحفرة لاستخراج العسل من أحد الخلايا بجوانب الحفرة، فسقطت منه (المبخارة)، فهاجمه النحل وزوجته التي تمسك بالحبل في أعلى الحفرة، فصرخ لها (هيتيني هيتيني) اي اتركيني، فتركته زوجته فسقط ميتا في قاع الحفرة.<br>‎‎‎‎‎"},"styleUrl":"#icon-503-DB4436-labelson","icon-opacity":1,"icon-color":"#db4436","icon-scale":1.1,"icon-offset":[16,32],"icon-offset-units":["pixels","insetPixels"],"icon":"https://www.gstatic.com/mapspro/images/stock/503-wht-blank_maps.png","gx_media_links":"https://lh3.googleusercontent.com/umsh/AN6v0v4j1nhg6f-QEie-XC7XR6dRohZMTrxOtC1kvS0dAatcxAmYjN_0MCizO6tOk_HmCRIVELgRxbRxYoib1kj1zrrs4K2YLxZGRaIoIgW8w_gRQOKdmArEUC1rD82_SOP0et7YVyXJ6aJ3p6DfLbTs2e_Nwlc04PoR5g8Bpd1bzWy2ZcmS7Sl1xtTdCnWYLk_jKoEgurAEDjb-VrPHrwXxSFnwJIjEODmMOow_DoOtGnx3IyalcMH4zzOQvcmbkPUvu8GAcH6h0DyAUHSv2iClPDzkMO_gKsWG0iJfbJfxv43OAZN6bLjsbHCC_ywHovJNdsvRkBibYTUIcRqkrsbVD3aa0TWx1E-9xJU6VTRyPABorWPyO2lweWxK10TpN_RNKO_mfdraR0IoGx6hBlPbVYF_YzlOy90HT312-ti2zJ3ZZJRe_XiX3oDH1mAswRjXLzDD7S_VPFRRYuaZUvlj-D2ozSPWwVXlBnUWLN7IjE4KBsu0dFoOnD_ZH-3ux53rg9wm2OZCuxT9nYkiDay-eSRODESjrJYIXiLf_VHxJLo6sB8iVhv8FGg1HbiU9hAtdv5Cy-TeDF1251eu0qBdIBDejUNu4zzgM87Ya2sRCReOre-cfRTyL8OsgHRFTuxyyw8zKL83Jt16QAhxpFGQw2snLAaPETuyXbsJlQec10HzftXOEUWAqm3cNoknGM4-qyuC69igirvkSRELHxrKvbhA5cmFpSrtDJpztL6eQ3u10bvH2s37-Y2S5NG3HEixFyBjBvXPH1-mdxO15JnqstUKLHMwKVuejBZIqcpyKQX8UBVb_l63-SYSxSHhgwg8jVCMrwOgf-ER8oSWzQk"}},{"type":"Feature","geometry":{"type":"Point","coordinates":[20.994925,32.47525,0]},"properties":{"name":"هوا بوميدوعة","styleUrl":"#icon-503-DB4436-labelson-nodesc","icon-opacity":1,"icon-color":"#db4436","icon-scale":1.1,"icon-offset":[16,32],"icon-offset-units":["pixels","insetPixels"],"icon":"https://www.gstatic.com/mapspro/images/stock/503-wht-blank_maps.png"}},{"type":"Feature","geometry":{"type":"Point","coordinates":[22.169928,32.866047,0]},"properties":{"name":"عين رأس الهلال","styleUrl":"#icon-503-DB4436-labelson-nodesc","icon-opacity":1,"icon-color":"#db4436","icon-scale":1.1,"icon-offset":[16,32],"icon-offset-units":["pixels","insetPixels"],"icon":"https://www.gstatic.com/mapspro/images/stock/503-wht-blank_maps.png"}},{"type":"Feature","geometry":{"type":"Point","coordinates":[21.713861,32.592226,0]},"properties":{"name":"معبد اسلنطة","styleUrl":"#icon-503-DB4436-labelson-nodesc","icon-opacity":1,"icon-color":"#db4436","icon-scale":1.1,"icon-offset":[16,32],"icon-offset-units":["pixels","insetPixels"],"icon":"https://www.gstatic.com/mapspro/images/stock/503-wht-blank_maps.png"}},{"type":"Feature","geometry":{"type":"Point","coordinates":[21.422825,32.789151,0]},"properties":{"name":"شاطىء جرجار أمه","styleUrl":"#icon-503-DB4436-labelson-nodesc","icon-opacity":1,"icon-color":"#db4436","icon-scale":1.1,"icon-offset":[16,32],"icon-offset-units":["pixels","insetPixels"],"icon":"https://www.gstatic.com/mapspro/images/stock/503-wht-blank_maps.png"}},{"type":"Feature","geometry":{"type":"Point","coordinates":[20.630786,32.518803,0]},"properties":{"name":"عقبة الباكور","styleUrl":"#icon-503-DB4436-labelson-nodesc","icon-opacity":1,"icon-color":"#db4436","icon-scale":1.1,"icon-offset":[16,32],"icon-offset-units":["pixels","insetPixels"],"icon":"https://www.gstatic.com/mapspro/images/stock/503-wht-blank_maps.png"}},{"type":"Feature","geometry":{"type":"Point","coordinates":[20.538872,32.416144,0]},"properties":{"name":"عقبة برسس","styleUrl":"#icon-503-DB4436-labelson-nodesc","icon-opacity":1,"icon-color":"#db4436","icon-scale":1.1,"icon-offset":[16,32],"icon-offset-units":["pixels","insetPixels"],"icon":"https://www.gstatic.com/mapspro/images/stock/503-wht-blank_maps.png"}},{"type":"Feature","geometry":{"type":"Point","coordinates":[20.155588,32.214947,0]},"properties":{"name":"بحيرة عين الزيانة","description":{"@type":"html","value":"<img src=\"https://lh3.googleusercontent.com/umsh/AN6v0v6zy-mJsV-N7u7fKB4GMfQG0RjGfa_YDCk_wtBKcaFZY0hBkaUQQHiTeNKjcL-ifBxGrzcheG9QpwMxLOePZmgCk1jDi54EycfPktQxX1LCJ9ODC1amwRXicJHl_1CtX3akwarvJjVaj02zeATEkNeQPlngrhPWFYsu8gwa5bhzOLupIBhIu2nCqIaUmoXE4-vMsnvsKwMr-mVP-2dSwKwLx5p3yHH86aL8Jwupugnp0Typ9O7P21fJWg2CQ9CgsazyUBpSThNj8_ph4OG8AMuoiS-Oll3w1iOznoTLBqSQb5WqWd7Gh8IOlCkugkgPrm61S_8hp9lETrT9iRZ5B1XP8LqcTknOoK1OXzQqgNBu6HrkcwVcrzAHFPsJHBDB0by53fEuth5XM9mLyWryUlQ1jsOk0IjUCHwmmj16_xOgN184D5n-5VfHQKjySdIwZiH_AskFGjDiqPTeDYD6cHNp0K40YOqgObvMRJ1y8ExBpKVqHe9RPOgvLsIqpxErqSEaf1jgh7qmoXJAYCScnswXvmOweHnyALyEVLNn7fMhQwH2od993RI5t8a-x3ScFNl2FErAt-RIUyVJAtvRUm2viOZbBx-UlPRX2Te4EFRzXpuAZFllzMUdP9eZRWVp_2RkbXz5tsekS7Enht-C5wumEDNgfIjsibulPnHxDtfAOLdVOyt6qiKFVHtlq2z8_w\" height=\"200\" width=\"auto\" /><br><br>تقع بحيرة عين زيانه أو كما تسمى ( الثغرة الزرقاء ) على مسافة 8 كيلومترات شمال مدينة بنغازي ، و تشمل بحيرة طبيعية متصلة بالبحر بواسطة قناة مائية ، يبلغ طولها نحو 1.5 كيلومترات، وعرضها 600 متر، وتتوفر بهذا الموقع إمكانيات سياحية طبيعية ، جذابة، كما تعتبر من مناطق استراحة الطيور المهاجرة .‎"},"styleUrl":"#icon-503-DB4436-labelson","icon-opacity":1,"icon-color":"#db4436","icon-scale":1.1,"icon-offset":[16,32],"icon-offset-units":["pixels","insetPixels"],"icon":"https://www.gstatic.com/mapspro/images/stock/503-wht-blank_maps.png","gx_media_links":"https://lh3.googleusercontent.com/umsh/AN6v0v6zy-mJsV-N7u7fKB4GMfQG0RjGfa_YDCk_wtBKcaFZY0hBkaUQQHiTeNKjcL-ifBxGrzcheG9QpwMxLOePZmgCk1jDi54EycfPktQxX1LCJ9ODC1amwRXicJHl_1CtX3akwarvJjVaj02zeATEkNeQPlngrhPWFYsu8gwa5bhzOLupIBhIu2nCqIaUmoXE4-vMsnvsKwMr-mVP-2dSwKwLx5p3yHH86aL8Jwupugnp0Typ9O7P21fJWg2CQ9CgsazyUBpSThNj8_ph4OG8AMuoiS-Oll3w1iOznoTLBqSQb5WqWd7Gh8IOlCkugkgPrm61S_8hp9lETrT9iRZ5B1XP8LqcTknOoK1OXzQqgNBu6HrkcwVcrzAHFPsJHBDB0by53fEuth5XM9mLyWryUlQ1jsOk0IjUCHwmmj16_xOgN184D5n-5VfHQKjySdIwZiH_AskFGjDiqPTeDYD6cHNp0K40YOqgObvMRJ1y8ExBpKVqHe9RPOgvLsIqpxErqSEaf1jgh7qmoXJAYCScnswXvmOweHnyALyEVLNn7fMhQwH2od993RI5t8a-x3ScFNl2FErAt-RIUyVJAtvRUm2viOZbBx-UlPRX2Te4EFRzXpuAZFllzMUdP9eZRWVp_2RkbXz5tsekS7Enht-C5wumEDNgfIjsibulPnHxDtfAOLdVOyt6qiKFVHtlq2z8_w"}},{"type":"Feature","geometry":{"type":"Point","coordinates":[21.47649,32.812526,0]},"properties":{"name":"عين الشقيقة","description":"صنفت سبخة عين الشقيقة من بين أهم مناطق الاستراحة للطيور المهاجرة.. وتقدر مساحتها بنحو 33 هكتار، وهي سبخة ساحلية شديدة الملوحة، مع تشكيلات من الصخور الكلسية، تحفها السهول الطينية، فيما تتصل عبر قناتين بالبحر، مايؤدي إلى ارتفاع منسوب مياهها خلال فصل الشتاء، وصنفت السبخة ، بالموقع ذو الامكانات الكبيرة لقيام أنشطة السياحة البيئية، ومراقبة الطيور المقيمة والمهاجرة والمائية.","styleUrl":"#icon-503-DB4436-labelson","icon-opacity":1,"icon-color":"#db4436","icon-scale":1.1,"icon-offset":[16,32],"icon-offset-units":["pixels","insetPixels"],"icon":"https://www.gstatic.com/mapspro/images/stock/503-wht-blank_maps.png"}},{"type":"Feature","geometry":{"type":"Point","coordinates":[20.405519,32.027136,0]},"properties":{"name":"سد وادي القطارة","styleUrl":"#icon-503-DB4436-labelson-nodesc","icon-opacity":1,"icon-color":"#db4436","icon-scale":1.1,"icon-offset":[16,32],"icon-offset-units":["pixels","insetPixels"],"icon":"https://www.gstatic.com/mapspro/images/stock/503-wht-blank_maps.png"}},{"type":"Feature","geometry":{"type":"Point","coordinates":[21.332284,32.72852,0]},"properties":{"name":"هوا أم السعد‎‎","description":{"@type":"html","value":"<img src=\"https://lh3.googleusercontent.com/umsh/AN6v0v7pncjS1A23UZry4_Drxt7l6SdT7VuE3XQqzcDVlXeDT1bSMa-yI_2PTsrY6TeLgaCzCBUHhcw-eAQJw0HwyOsKjP-AWLJ-XfH8tuQD6dmgI-DPlF57TxgkfIU0C65TsDfNTHAhIgyNkS4R7E3kS9KsfA8aQOYTtJsGAT8idK72M134VEHKVgknVGKmdmxdz_ZlUAN8m9VPloYaYpGBNJyO7zBYl3zk6VWg-ngXz59YNMg34i5pwBIpWABhyIS9nkcQ8uviQsYrDHZLLYJ7BX4RUWnBE-D9DEfj8FSiwdN1_6RZchWH-1mxsqb7wObvHfTjiEirCzMPKZZvS3zasa3W_Z7bFkMFqSXugygLrmjfZS3FqehVNOUYJ43Ou6KXtm8F9iWEOMe6D3Vc2u0xSXJ8UlgT-EPwvFi5Oqz4fSRmDPA71ktdzj6Jb9w8isAg_1PMQgpPGe3xiynKZF7qVYwFSvbYy_wjSjD1aeB1pdgeqU6G-YrdglXrPDrR6L1fRhFVVyXsDLDjbgIORuL0_744IwgGRdE-tcJgCzkCT685xCxql2eRyyWIoZpxBRBzEcoM49C9ylZOoIWCNtCiyXU2lQKu3QLPdZDzdJgXQQin32OlqK_DihboQWkGiGzBi2do4GgpntHr7pW2qrylGkAeXewRFJoamlLCeMg3z249DHcOGLadCSsLuch9kF4jXDJxuJkwXNf7Ier1Wm4qmcUGi7_yndNojVT5gJQFpCxUamd8lZrOPnaAQGQpiMGcShPZH37w5lq4n4sFVxUgu3ReVt_vin4UK68E90x8t55VG2qgG9CSFr5n94PiX0n_sQK50zGingVEXCp5uMo\" height=\"200\" width=\"auto\" /><br><br>يبلغ قطره اكثر من (200متر) ومساحته حوالي( 2هكتار) وعمقه (70 متر) تقريباً. ‎"},"styleUrl":"#icon-503-DB4436-labelson","icon-opacity":1,"icon-color":"#db4436","icon-scale":1.1,"icon-offset":[16,32],"icon-offset-units":["pixels","insetPixels"],"icon":"https://www.gstatic.com/mapspro/images/stock/503-wht-blank_maps.png","gx_media_links":"https://lh3.googleusercontent.com/umsh/AN6v0v7pncjS1A23UZry4_Drxt7l6SdT7VuE3XQqzcDVlXeDT1bSMa-yI_2PTsrY6TeLgaCzCBUHhcw-eAQJw0HwyOsKjP-AWLJ-XfH8tuQD6dmgI-DPlF57TxgkfIU0C65TsDfNTHAhIgyNkS4R7E3kS9KsfA8aQOYTtJsGAT8idK72M134VEHKVgknVGKmdmxdz_ZlUAN8m9VPloYaYpGBNJyO7zBYl3zk6VWg-ngXz59YNMg34i5pwBIpWABhyIS9nkcQ8uviQsYrDHZLLYJ7BX4RUWnBE-D9DEfj8FSiwdN1_6RZchWH-1mxsqb7wObvHfTjiEirCzMPKZZvS3zasa3W_Z7bFkMFqSXugygLrmjfZS3FqehVNOUYJ43Ou6KXtm8F9iWEOMe6D3Vc2u0xSXJ8UlgT-EPwvFi5Oqz4fSRmDPA71ktdzj6Jb9w8isAg_1PMQgpPGe3xiynKZF7qVYwFSvbYy_wjSjD1aeB1pdgeqU6G-YrdglXrPDrR6L1fRhFVVyXsDLDjbgIORuL0_744IwgGRdE-tcJgCzkCT685xCxql2eRyyWIoZpxBRBzEcoM49C9ylZOoIWCNtCiyXU2lQKu3QLPdZDzdJgXQQin32OlqK_DihboQWkGiGzBi2do4GgpntHr7pW2qrylGkAeXewRFJoamlLCeMg3z249DHcOGLadCSsLuch9kF4jXDJxuJkwXNf7Ier1Wm4qmcUGi7_yndNojVT5gJQFpCxUamd8lZrOPnaAQGQpiMGcShPZH37w5lq4n4sFVxUgu3ReVt_vin4UK68E90x8t55VG2qgG9CSFr5n94PiX0n_sQK50zGingVEXCp5uMo"}},{"type":"Feature","geometry":{"type":"Point","coordinates":[21.937789,32.8433,0]},"properties":{"name":"هوا القاطر","styleUrl":"#icon-503-DB4436-labelson-nodesc","icon-opacity":1,"icon-color":"#db4436","icon-scale":1.1,"icon-offset":[16,32],"icon-offset-units":["pixels","insetPixels"],"icon":"https://www.gstatic.com/mapspro/images/stock/503-wht-blank_maps.png"}},{"type":"Feature","geometry":{"type":"Point","coordinates":[21.943421,32.820393,0]},"properties":{"name":"هوا احجري","styleUrl":"#icon-503-DB4436-labelson-nodesc","icon-opacity":1,"icon-color":"#db4436","icon-scale":1.1,"icon-offset":[16,32],"icon-offset-units":["pixels","insetPixels"],"icon":"https://www.gstatic.com/mapspro/images/stock/503-wht-blank_maps.png"}},{"type":"Feature","geometry":{"type":"Point","coordinates":[21.954449,32.826113,0]},"properties":{"name":"منتجع الأبرق السياحي","styleUrl":"#icon-503-DB4436-labelson-nodesc","icon-opacity":1,"icon-color":"#db4436","icon-scale":1.1,"icon-offset":[16,32],"icon-offset-units":["pixels","insetPixels"],"icon":"https://www.gstatic.com/mapspro/images/stock/503-wht-blank_maps.png"}},{"type":"Feature","geometry":{"type":"Point","coordinates":[21.879444,32.823886,0]},"properties":{"name":"منتجع الحقفة او شحات السياحي‎","description":{"@type":"html","value":"منتجع شحات السياحي<br>يقع منتجع شحات السياحي المصنف ضمن فئة الثلاث نجوم، وسط مناظر طبيعية خلابة، ويعتبر أحد مرافق الايواء السياحي بمدينة شحات، ويحتوي على 28 غرفة زوجية، وفردية، وجناح واحد، فيما يبلغ عدد الأسرة داخل المنتجع 64 سريراً، كما زود المنتجع بمقهى ومطعم (الكهف)، الذي يتسع 150 شخصاً، وموقف خاص للسيارات، فيما تبلغ مساحة المنتجع نحو هكتار ونصف الهكتار.<br>أرقام هواتف المنتجع : 0912093230<br> : 0465642191"},"styleUrl":"#icon-503-DB4436-labelson","icon-opacity":1,"icon-color":"#db4436","icon-scale":1.1,"icon-offset":[16,32],"icon-offset-units":["pixels","insetPixels"],"icon":"https://www.gstatic.com/mapspro/images/stock/503-wht-blank_maps.png"}},{"type":"Feature","geometry":{"type":"Point","coordinates":[21.87011,32.827691,0]},"properties":{"name":"مطعم الكهف","styleUrl":"#icon-503-DB4436-labelson-nodesc","icon-opacity":1,"icon-color":"#db4436","icon-scale":1.1,"icon-offset":[16,32],"icon-offset-units":["pixels","insetPixels"],"icon":"https://www.gstatic.com/mapspro/images/stock/503-wht-blank_maps.png"}},{"type":"Feature","geometry":{"type":"Point","coordinates":[21.872406,32.834705,0]},"properties":{"name":"الطريق الجبلي إلى سوسة","styleUrl":"#icon-503-DB4436-labelson-nodesc","icon-opacity":1,"icon-color":"#db4436","icon-scale":1.1,"icon-offset":[16,32],"icon-offset-units":["pixels","insetPixels"],"icon":"https://www.gstatic.com/mapspro/images/stock/503-wht-blank_maps.png"}},{"type":"Feature","geometry":{"type":"Point","coordinates":[21.863512,32.812905,0]},"properties":{"name":"بيت شباب شحات","styleUrl":"#icon-503-DB4436-labelson-nodesc","icon-opacity":1,"icon-color":"#db4436","icon-scale":1.1,"icon-offset":[16,32],"icon-offset-units":["pixels","insetPixels"],"icon":"https://www.gstatic.com/mapspro/images/stock/503-wht-blank_maps.png"}},{"type":"Feature","geometry":{"type":"Point","coordinates":[16.164837,29.142566,0]},"properties":{"name":"منتزه ودان","styleUrl":"#icon-503-DB4436-labelson-nodesc","icon-opacity":1,"icon-color":"#db4436","icon-scale":1.1,"icon-offset":[16,32],"icon-offset-units":["pixels","insetPixels"],"icon":"https://www.gstatic.com/mapspro/images/stock/503-wht-blank_maps.png"}},{"type":"Feature","geometry":{"type":"Point","coordinates":[16.163764,29.136831,0]},"properties":{"name":"نادي ودان للطيران","styleUrl":"#icon-503-DB4436-labelson-nodesc","icon-opacity":1,"icon-color":"#db4436","icon-scale":1.1,"icon-offset":[16,32],"icon-offset-units":["pixels","insetPixels"],"icon":"https://www.gstatic.com/mapspro/images/stock/503-wht-blank_maps.png"}},{"type":"Feature","geometry":{"type":"Point","coordinates":[16.134329,29.160819,0]},"properties":{"name":"قلعة الطوزة","styleUrl":"#icon-503-DB4436-labelson-nodesc","icon-opacity":1,"icon-color":"#db4436","icon-scale":1.1,"icon-offset":[16,32],"icon-offset-units":["pixels","insetPixels"],"icon":"https://www.gstatic.com/mapspro/images/stock/503-wht-blank_maps.png"}},{"type":"Feature","geometry":{"type":"Point","coordinates":[16.008539,29.194354,0]},"properties":{"name":"مطار الجفرة","styleUrl":"#icon-503-DB4436-labelson-nodesc","icon-opacity":1,"icon-color":"#db4436","icon-scale":1.1,"icon-offset":[16,32],"icon-offset-units":["pixels","insetPixels"],"icon":"https://www.gstatic.com/mapspro/images/stock/503-wht-blank_maps.png"}},{"type":"Feature","geometry":{"type":"Point","coordinates":[15.920337,29.146394,0]},"properties":{"name":"مدينة الحويلة","styleUrl":"#icon-503-DB4436-labelson-nodesc","icon-opacity":1,"icon-color":"#db4436","icon-scale":1.1,"icon-offset":[16,32],"icon-offset-units":["pixels","insetPixels"],"icon":"https://www.gstatic.com/mapspro/images/stock/503-wht-blank_maps.png"}},{"type":"Feature","geometry":{"type":"Point","coordinates":[15.896745,29.187348,0]},"properties":{"name":"اللودي","styleUrl":"#icon-503-DB4436-labelson-nodesc","icon-opacity":1,"icon-color":"#db4436","icon-scale":1.1,"icon-offset":[16,32],"icon-offset-units":["pixels","insetPixels"],"icon":"https://www.gstatic.com/mapspro/images/stock/503-wht-blank_maps.png"}},{"type":"Feature","geometry":{"type":"Point","coordinates":[15.915016,29.166899,0]},"properties":{"name":"ساكن بن مسكان","styleUrl":"#icon-503-DB4436-labelson-nodesc","icon-opacity":1,"icon-color":"#db4436","icon-scale":1.1,"icon-offset":[16,32],"icon-offset-units":["pixels","insetPixels"],"icon":"https://www.gstatic.com/mapspro/images/stock/503-wht-blank_maps.png"}},{"type":"Feature","geometry":{"type":"Point","coordinates":[15.913782,29.150137,0]},"properties":{"name":"كثبان رملية - رملة الحاج أعمر","styleUrl":"#icon-503-DB4436-labelson-nodesc","icon-opacity":1,"icon-color":"#db4436","icon-scale":1.1,"icon-offset":[16,32],"icon-offset-units":["pixels","insetPixels"],"icon":"https://www.gstatic.com/mapspro/images/stock/503-wht-blank_maps.png"}},{"type":"Feature","geometry":{"type":"Point","coordinates":[15.92067,29.123654,0]},"properties":{"name":"بيوت شباب هون","styleUrl":"#icon-503-DB4436-labelson-nodesc","icon-opacity":1,"icon-color":"#db4436","icon-scale":1.1,"icon-offset":[16,32],"icon-offset-units":["pixels","insetPixels"],"icon":"https://www.gstatic.com/mapspro/images/stock/503-wht-blank_maps.png"}},{"type":"Feature","geometry":{"type":"Point","coordinates":[15.928953,29.118556,0]},"properties":{"name":"مزرعة الفوارة","styleUrl":"#icon-503-DB4436-labelson-nodesc","icon-opacity":1,"icon-color":"#db4436","icon-scale":1.1,"icon-offset":[16,32],"icon-offset-units":["pixels","insetPixels"],"icon":"https://www.gstatic.com/mapspro/images/stock/503-wht-blank_maps.png"}},{"type":"Feature","geometry":{"type":"Point","coordinates":[15.487976,28.735152,0]},"properties":{"name":"الجبال السوداء","styleUrl":"#icon-503-DB4436-labelson-nodesc","icon-opacity":1,"icon-color":"#db4436","icon-scale":1.1,"icon-offset":[16,32],"icon-offset-units":["pixels","insetPixels"],"icon":"https://www.gstatic.com/mapspro/images/stock/503-wht-blank_maps.png"}},{"type":"Feature","geometry":{"type":"Point","coordinates":[15.906057,29.088314,0]},"properties":{"name":"سوف انجلة","styleUrl":"#icon-503-DB4436-labelson-nodesc","icon-opacity":1,"icon-color":"#db4436","icon-scale":1.1,"icon-offset":[16,32],"icon-offset-units":["pixels","insetPixels"],"icon":"https://www.gstatic.com/mapspro/images/stock/503-wht-blank_maps.png"}},{"type":"Feature","geometry":{"type":"Point","coordinates":[15.934446,29.123116,0]},"properties":{"name":"مدينة هون القديمة","styleUrl":"#icon-503-DB4436-labelson-nodesc","icon-opacity":1,"icon-color":"#db4436","icon-scale":1.1,"icon-offset":[16,32],"icon-offset-units":["pixels","insetPixels"],"icon":"https://www.gstatic.com/mapspro/images/stock/503-wht-blank_maps.png"}},{"type":"Feature","geometry":{"type":"Point","coordinates":[15.93612,29.121733,0]},"properties":{"name":"مبنى المتصرفية الايطالية","styleUrl":"#icon-503-DB4436-labelson-nodesc","icon-opacity":1,"icon-color":"#db4436","icon-scale":1.1,"icon-offset":[16,32],"icon-offset-units":["pixels","insetPixels"],"icon":"https://www.gstatic.com/mapspro/images/stock/503-wht-blank_maps.png"}},{"type":"Feature","geometry":{"type":"Point","coordinates":[15.934741,29.12768,0]},"properties":{"name":"القلعة العثمانية","styleUrl":"#icon-503-DB4436-labelson-nodesc","icon-opacity":1,"icon-color":"#db4436","icon-scale":1.1,"icon-offset":[16,32],"icon-offset-units":["pixels","insetPixels"],"icon":"https://www.gstatic.com/mapspro/images/stock/503-wht-blank_maps.png"}},{"type":"Feature","geometry":{"type":"Point","coordinates":[20.148368,32.163443,0]},"properties":{"name":"هوا حمد","styleUrl":"#icon-503-DB4436-labelson-nodesc","icon-opacity":1,"icon-color":"#db4436","icon-scale":1.1,"icon-offset":[16,32],"icon-offset-units":["pixels","insetPixels"],"icon":"https://www.gstatic.com/mapspro/images/stock/503-wht-blank_maps.png"}},{"type":"Feature","geometry":{"type":"Point","coordinates":[20.133047,32.15694,0]},"properties":{"name":"بحيرة بوحميرة","styleUrl":"#icon-503-DB4436-labelson-nodesc","icon-opacity":1,"icon-color":"#db4436","icon-scale":1.1,"icon-offset":[16,32],"icon-offset-units":["pixels","insetPixels"],"icon":"https://www.gstatic.com/mapspro/images/stock/503-wht-blank_maps.png"}},{"type":"Feature","geometry":{"type":"Point","coordinates":[20.128756,32.155414,0]},"properties":{"name":"بحيرة المجدوب","styleUrl":"#icon-503-DB4436-labelson-nodesc","icon-opacity":1,"icon-color":"#db4436","icon-scale":1.1,"icon-offset":[16,32],"icon-offset-units":["pixels","insetPixels"],"icon":"https://www.gstatic.com/mapspro/images/stock/503-wht-blank_maps.png"}},{"type":"Feature","geometry":{"type":"Point","coordinates":[20.163002,32.112168,0]},"properties":{"name":"هبوطات","styleUrl":"#icon-503-DB4436-labelson-nodesc","icon-opacity":1,"icon-color":"#db4436","icon-scale":1.1,"icon-offset":[16,32],"icon-offset-units":["pixels","insetPixels"],"icon":"https://www.gstatic.com/mapspro/images/stock/503-wht-blank_maps.png"}},{"type":"Feature","geometry":{"type":"Point","coordinates":[20.157434,32.116348,0]},"properties":{"name":"نهر الليثون","styleUrl":"#icon-503-DB4436-labelson-nodesc","icon-opacity":1,"icon-color":"#db4436","icon-scale":1.1,"icon-offset":[16,32],"icon-offset-units":["pixels","insetPixels"],"icon":"https://www.gstatic.com/mapspro/images/stock/503-wht-blank_maps.png"}},{"type":"Feature","geometry":{"type":"Point","coordinates":[16.200583,31.237694,0]},"properties":{"name":"محمية الثلاثين","styleUrl":"#icon-503-DB4436-labelson-nodesc","icon-opacity":1,"icon-color":"#db4436","icon-scale":1.1,"icon-offset":[16,32],"icon-offset-units":["pixels","insetPixels"],"icon":"https://www.gstatic.com/mapspro/images/stock/503-wht-blank_maps.png"}},{"type":"Feature","geometry":{"type":"Point","coordinates":[21.810533,32.908884,0]},"properties":{"name":"برك نوطة","styleUrl":"#icon-503-DB4436-labelson-nodesc","icon-opacity":1,"icon-color":"#db4436","icon-scale":1.1,"icon-offset":[16,32],"icon-offset-units":["pixels","insetPixels"],"icon":"https://www.gstatic.com/mapspro/images/stock/503-wht-blank_maps.png"}},{"type":"Feature","geometry":{"type":"Point","coordinates":[21.808591,32.907704,0]},"properties":{"name":"برك نوطة","description":"برك مائية محفورة في الجبال تعرف بـ (برك نوطة) غرب مدينة سوسة، تشكلت هذه التجمعات المائية، نتيجة تسرب المياه الجوفية والعيون الطبيعية المنتشرة بالمنطقة، وطفت على السطح في هيئة برك تلفها النباتات دائمة الخضرة والأعشاب الموسمية","styleUrl":"#icon-503-DB4436-labelson","icon-opacity":1,"icon-color":"#db4436","icon-scale":1.1,"icon-offset":[16,32],"icon-offset-units":["pixels","insetPixels"],"icon":"https://www.gstatic.com/mapspro/images/stock/503-wht-blank_maps.png"}},{"type":"Feature","geometry":{"type":"Point","coordinates":[22.278552,32.87305,0]},"properties":{"name":"كنيسة الأثرون","styleUrl":"#icon-503-DB4436-labelson-nodesc","icon-opacity":1,"icon-color":"#db4436","icon-scale":1.1,"icon-offset":[16,32],"icon-offset-units":["pixels","insetPixels"],"icon":"https://www.gstatic.com/mapspro/images/stock/503-wht-blank_maps.png"}},{"type":"Feature","geometry":{"type":"Point","coordinates":[22.279608,32.86827,0]},"properties":{"name":"الأثرون","styleUrl":"#icon-503-DB4436-labelson-nodesc","icon-opacity":1,"icon-color":"#db4436","icon-scale":1.1,"icon-offset":[16,32],"icon-offset-units":["pixels","insetPixels"],"icon":"https://www.gstatic.com/mapspro/images/stock/503-wht-blank_maps.png"}},{"type":"Feature","geometry":{"type":"Point","coordinates":[22.190258,32.881506,0]},"properties":{"name":"منتجع الينابيع‎","description":{"@type":"html","value":"منتجع الينابيع السياحي<br>يحتوي المنتجع على 36 دارة للإقامة، منها 24 دارة كبيرة الحجم، و12 دارة صغيرة، كما يوفر المنتجع خدمات الاصطياف على شاطىء البحر، ويضم مطعم ومقهى الينابيع الذي يتسع لـ 40 شخصاً، إلى جانب قاعة للاجتماعات تبلغ قدرتها الاستيعابية 25 فرداً.<br>أرقام هواتف المنتجع : 0927371208."},"styleUrl":"#icon-503-DB4436-labelson","icon-opacity":1,"icon-color":"#db4436","icon-scale":1.1,"icon-offset":[16,32],"icon-offset-units":["pixels","insetPixels"],"icon":"https://www.gstatic.com/mapspro/images/stock/503-wht-blank_maps.png"}},{"type":"Feature","geometry":{"type":"Point","coordinates":[22.180635,32.883124,0]},"properties":{"name":"النافورة والجامع القديم برأس هلال","styleUrl":"#icon-503-DB4436-labelson-nodesc","icon-opacity":1,"icon-color":"#db4436","icon-scale":1.1,"icon-offset":[16,32],"icon-offset-units":["pixels","insetPixels"],"icon":"https://www.gstatic.com/mapspro/images/stock/503-wht-blank_maps.png"}},{"type":"Feature","geometry":{"type":"Point","coordinates":[22.207258,32.847222,0]},"properties":{"name":"وادي مرقس","styleUrl":"#icon-503-DB4436-labelson-nodesc","icon-opacity":1,"icon-color":"#db4436","icon-scale":1.1,"icon-offset":[16,32],"icon-offset-units":["pixels","insetPixels"],"icon":"https://www.gstatic.com/mapspro/images/stock/503-wht-blank_maps.png"}},{"type":"Feature","geometry":{"type":"Point","coordinates":[22.21009,32.847006,0]},"properties":{"name":"عين الدبوسية","styleUrl":"#icon-503-DB4436-labelson-nodesc","icon-opacity":1,"icon-color":"#db4436","icon-scale":1.1,"icon-offset":[16,32],"icon-offset-units":["pixels","insetPixels"],"icon":"https://www.gstatic.com/mapspro/images/stock/503-wht-blank_maps.png"}},{"type":"Feature","geometry":{"type":"Point","coordinates":[22.614722,32.718333,0]},"properties":{"name":"شلال درنة","styleUrl":"#icon-503-DB4436-labelson-nodesc","icon-opacity":1,"icon-color":"#db4436","icon-scale":1.1,"icon-offset":[16,32],"icon-offset-units":["pixels","insetPixels"],"icon":"https://www.gstatic.com/mapspro/images/stock/503-wht-blank_maps.png"}},{"type":"Feature","geometry":{"type":"Point","coordinates":[22.630485,32.750521,0]},"properties":{"name":"وادي درنة","styleUrl":"#icon-503-DB4436-labelson-nodesc","icon-opacity":1,"icon-color":"#db4436","icon-scale":1.1,"icon-offset":[16,32],"icon-offset-units":["pixels","insetPixels"],"icon":"https://www.gstatic.com/mapspro/images/stock/503-wht-blank_maps.png"}},{"type":"Feature","geometry":{"type":"Point","coordinates":[22.642125,32.761754,0]},"properties":{"name":"جامع الصحابة","styleUrl":"#icon-503-DB4436-labelson-nodesc","icon-opacity":1,"icon-color":"#db4436","icon-scale":1.1,"icon-offset":[16,32],"icon-offset-units":["pixels","insetPixels"],"icon":"https://www.gstatic.com/mapspro/images/stock/503-wht-blank_maps.png"}},{"type":"Feature","geometry":{"type":"Point","coordinates":[9.832159,30.254972,0]},"properties":{"name":"بحيرة مجزم","description":{"@type":"html","value":"تبرز بحيرة (مجزم) وسط وادي (أوال) أحد الأودية الصحراوية الواقعة جنوبي الحمادة الحمراء، وتحديداً على مسافة 35 كيلومتراً شمال شرق مدينة غدامس، وتعتبر من المعالم السياحية الطبيعية على الطريق المعبد الرابط بين مدينتي طرابلس وغدامس.<br> وتقع البحيرة، وسط منخفض يشكل جزءً من تضاريس هضبة الشطوط التي ورد ذكرها في مدونات الرحالة، وواحدة من شبكة بحيرات بين الحدود الليبية التونسية .<br>يطلق على البحيرة باللغة المحلية اسم (مجزم ناول) ، أي سبخة ناول، التي يرجح أنها تتغدى من مخزون مياه في باطن الأرض، جنباً إلى جنب مع كميات من مياه الأمطار التي تتساقط على مرتفعات جبل نفوسة، وتنساب عبر شبكة الأودية الصحراوية، مثل واديان أوال، و(امغرغر)، و(تنروت)، و(ميمون)، و(اتنفصكوين)، و (انجلزن)، الممتدة من سفوح جبال جادو، والزنتان، والرجبان، عبر حمادة (تنغرت)، والحمادة الحمراء، لمسافات طويلة وتصب في البحيرة، ومناطق (تقوت)، و(فرسان) الواقعتين شمال غدامس، ووديان (أماسين) و (انبدور)، وبعضها يصل إلى منطقة (ماركسان) غرب المدينة.<br>وتنقسم البحيرة إلى شطرين بحاجز ترابي يقسمها إلى بحيرتين شديدتي الملوحة إحداهما ضحلة وماؤها شفاف، وتزداد مساحتها وتنقص حسب كميات المياه في موسم الأمطار، والأخرى عميقة شبيهة بالبئر الواسع العميق، يبلغ محيطها ما يناهز 250 متراً مربعاً، وألوان مياهها زرقاء غامقة يميل إلى السواد بسبب عمقها الشديد الذي يترواح ما بين 35 إلى 70 متراً، وأطرافها شديدة الانحدار، وتشهد البحيرة انحساراً في فصل الصيف، وتزداد في فصلي الشتاء وأواخر الربيع نتيجة تدفق كميات من المياه القادمة عبر شبكة الوديان التي تغذي المنخفض بمياه الأمطار.<br>حول البحيرة ينمو حزام من النباتات الصحراوية التي تضفي على المكان لمسة جمالية تتباين فيها ألوان الأشجار والنباتات التي تشكل بيئة ملائمة لاستيطان وتكاثر الأحياء البرية والطيور، ومصدراً للنشاط الاقتصادي للسكان القريبين من المنطقة، بما في ذلك أشجار تبركت، وأضوت، وأعشاب (تاكلوت)، و (افلزفز)، و(الخشاش)، و(تقوفت)، وغيرها، التي تشكل موائلاً طبيعية للحيوانات البرية مثل الأرانب البرية والذئاب والثعالب، والغزلان، كما يقصدها الرعاة في فصل الربيع بسبب وفرة المياه والأعشاب، فيما تشهد تدفق أعداد من الطيور المهاجرة في مواسم هجرتها السنوية، في حين شكل المحيط النباتي مصدراً مهماً للسكان المحليين، الذين استخدموا النباتات واستفادوا منها في علاج بعض الأمراض، كنبات (تبركت) المفيد في علاجات ضغط الدم، ونبات (تاكوت) المستخدم في دبغ الجلود الذي كانت تشتهر بإنتاجها مدينة غدامس، فضلاً عن استخدام نباتات (الخشخاش) و (تقوفت) في العلاجات الطبية.<br>وكانت البحيرة إلى جانب (سبخة تونين) أحد مصادر استخراج الملح أحد مفاتيح تجارة سكان غدامس عبر التاريخ، فالملح الذي كان يستخرج من البحيرة ينقل عبر خط القوافل إلى مناطق الشمال، ويقايض بالقمح والشعير وزيت الزيتون وغيرها من المنتجات الزراعية .<br>وتعد البحيرة اليوم مقصداً للسياح، وتوضع على قائمة المناطق المستهدفة ضمن برنامج الجولات السياحية في مدينة غدامس، ويؤمها الزوار الباحثون عن الفسح والفرجة، والتمتع بالهدوء والاستمتاع بالهواء النقي والبيئة الصافية، والأجواء الساحرة التي تلف المكان وتغلفه."},"styleUrl":"#icon-503-DB4436-labelson","icon-opacity":1,"icon-color":"#db4436","icon-scale":1.1,"icon-offset":[16,32],"icon-offset-units":["pixels","insetPixels"],"icon":"https://www.gstatic.com/mapspro/images/stock/503-wht-blank_maps.png"}},{"type":"Feature","geometry":{"type":"Point","coordinates":[16.133631,29.153378,0]},"properties":{"name":"غابة تاقرفت","styleUrl":"#icon-503-DB4436-labelson-nodesc","icon-opacity":1,"icon-color":"#db4436","icon-scale":1.1,"icon-offset":[16,32],"icon-offset-units":["pixels","insetPixels"],"icon":"https://www.gstatic.com/mapspro/images/stock/503-wht-blank_maps.png"}},{"type":"Feature","geometry":{"type":"Point","coordinates":[21.522778,32.8425,0]},"properties":{"name":"قلعة الحنية","styleUrl":"#icon-503-DB4436-labelson-nodesc","icon-opacity":1,"icon-color":"#db4436","icon-scale":1.1,"icon-offset":[16,32],"icon-offset-units":["pixels","insetPixels"],"icon":"https://www.gstatic.com/mapspro/images/stock/503-wht-blank_maps.png"}},{"type":"Feature","geometry":{"type":"Point","coordinates":[22.123666,32.9257,0]},"properties":{"name":"كهف هوا افطيح","styleUrl":"#icon-503-DB4436-labelson-nodesc","icon-opacity":1,"icon-color":"#db4436","icon-scale":1.1,"icon-offset":[16,32],"icon-offset-units":["pixels","insetPixels"],"icon":"https://www.gstatic.com/mapspro/images/stock/503-wht-blank_maps.png"}},{"type":"Feature","geometry":{"type":"Point","coordinates":[22.103611,32.9075,0]},"properties":{"name":"هوا ارحيم‎","styleUrl":"#icon-503-DB4436-labelson-nodesc","icon-opacity":1,"icon-color":"#db4436","icon-scale":1.1,"icon-offset":[16,32],"icon-offset-units":["pixels","insetPixels"],"icon":"https://www.gstatic.com/mapspro/images/stock/503-wht-blank_maps.png"}},{"type":"Feature","geometry":{"type":"Point","coordinates":[22.415844,32.838431,0]},"properties":{"name":"وادي الانجيل","styleUrl":"#icon-503-DB4436-labelson-nodesc","icon-opacity":1,"icon-color":"#db4436","icon-scale":1.1,"icon-offset":[16,32],"icon-offset-units":["pixels","insetPixels"],"icon":"https://www.gstatic.com/mapspro/images/stock/503-wht-blank_maps.png"}},{"type":"Feature","geometry":{"type":"Point","coordinates":[22.248333,32.763056,0]},"properties":{"name":"عين القبة","styleUrl":"#icon-503-DB4436-labelson-nodesc","icon-opacity":1,"icon-color":"#db4436","icon-scale":1.1,"icon-offset":[16,32],"icon-offset-units":["pixels","insetPixels"],"icon":"https://www.gstatic.com/mapspro/images/stock/503-wht-blank_maps.png"}},{"type":"Feature","geometry":{"type":"Point","coordinates":[22.35,32.783333,0]},"properties":{"name":"عين الزرقاء","description":"تبرز سبخة العين الزرقاء على الطريق الرابط بين مدينتي البيضاء ودرنة، وهي من الموائل المهمة للطيور المهاجرة والمقيمة. وتقدر مساحة السبخة بنحو 50 هكتار ، الواقعة ضمن أراضي منتزه وادي الكوف الوطني، وصنفت ضمن الأراضي الرطبة، وملاذاً مهماً للطيور المائية، والموقع الواعدة للسياحة البيئية، ومراقبة الطيور.","styleUrl":"#icon-503-DB4436-labelson","icon-opacity":1,"icon-color":"#db4436","icon-scale":1.1,"icon-offset":[16,32],"icon-offset-units":["pixels","insetPixels"],"icon":"https://www.gstatic.com/mapspro/images/stock/503-wht-blank_maps.png"}},{"type":"Feature","geometry":{"type":"Point","coordinates":[22.928124,32.66568,0]},"properties":{"name":"وادي الخليج ","styleUrl":"#icon-503-DB4436-labelson-nodesc","icon-opacity":1,"icon-color":"#db4436","icon-scale":1.1,"icon-offset":[16,32],"icon-offset-units":["pixels","insetPixels"],"icon":"https://www.gstatic.com/mapspro/images/stock/503-wht-blank_maps.png"}},{"type":"Feature","geometry":{"type":"Point","coordinates":[23.126736,32.613496,0]},"properties":{"name":"رأس التين","styleUrl":"#icon-503-DB4436-labelson-nodesc","icon-opacity":1,"icon-color":"#db4436","icon-scale":1.1,"icon-offset":[16,32],"icon-offset-units":["pixels","insetPixels"],"icon":"https://www.gstatic.com/mapspro/images/stock/503-wht-blank_maps.png"}},{"type":"Feature","geometry":{"type":"Point","coordinates":[21.915556,32.882222,0]},"properties":{"name":"القلعة الايطالية","description":"معرفة باسم قصر السنارية","styleUrl":"#icon-503-DB4436-labelson","icon-opacity":1,"icon-color":"#db4436","icon-scale":1.1,"icon-offset":[16,32],"icon-offset-units":["pixels","insetPixels"],"icon":"https://www.gstatic.com/mapspro/images/stock/503-wht-blank_maps.png"}},{"type":"Feature","geometry":{"type":"Point","coordinates":[21.964744,32.900758,0]},"properties":{"name":"فندق المنارة‎","description":{"@type":"html","value":"فندق المنارة <br>تتوزع على طوابق الفندق الستة، 78 غرفة، ( 30 غرفة فردية، 30 غرفة زوجية، 6 غرف ثلاثية، 6 غرف سرير حجم كبير، 11 جناح ممتاز، 11 جناح عادي)، إلى جانب مطعم سوسة البالغة قدرته الاستيعابية 120 شخص، ومقهى أبوللو الذي يتسع لـ 30 شخصاً، كما زود الفندق بموقف خاص للسيارات ستوعب 55 سيارة.<br>أرقام هواتف الفندق : 0695153003."},"styleUrl":"#icon-503-DB4436-labelson","icon-opacity":1,"icon-color":"#db4436","icon-scale":1.1,"icon-offset":[16,32],"icon-offset-units":["pixels","insetPixels"],"icon":"https://www.gstatic.com/mapspro/images/stock/503-wht-blank_maps.png"}},{"type":"Feature","geometry":{"type":"Point","coordinates":[22.187222,32.875278,0]},"properties":{"name":"منتجع قوس قزح","styleUrl":"#icon-503-DB4436-labelson-nodesc","icon-opacity":1,"icon-color":"#db4436","icon-scale":1.1,"icon-offset":[16,32],"icon-offset-units":["pixels","insetPixels"],"icon":"https://www.gstatic.com/mapspro/images/stock/503-wht-blank_maps.png"}},{"type":"Feature","geometry":{"type":"Point","coordinates":[22.168965,32.90176,0]},"properties":{"name":"مصيف رأس الهلال","styleUrl":"#icon-503-DB4436-labelson-nodesc","icon-opacity":1,"icon-color":"#db4436","icon-scale":1.1,"icon-offset":[16,32],"icon-offset-units":["pixels","insetPixels"],"icon":"https://www.gstatic.com/mapspro/images/stock/503-wht-blank_maps.png"}},{"type":"Feature","geometry":{"type":"Point","coordinates":[22.171912,32.91182,0]},"properties":{"name":"مرفأ رأس الهلال","styleUrl":"#icon-503-DB4436-labelson-nodesc","icon-opacity":1,"icon-color":"#db4436","icon-scale":1.1,"icon-offset":[16,32],"icon-offset-units":["pixels","insetPixels"],"icon":"https://www.gstatic.com/mapspro/images/stock/503-wht-blank_maps.png"}},{"type":"Feature","geometry":{"type":"Point","coordinates":[22.276285,32.873395,0]},"properties":{"name":"كنيسة الأثرون ","styleUrl":"#icon-503-DB4436-labelson-nodesc","icon-opacity":1,"icon-color":"#db4436","icon-scale":1.1,"icon-offset":[16,32],"icon-offset-units":["pixels","insetPixels"],"icon":"https://www.gstatic.com/mapspro/images/stock/503-wht-blank_maps.png"}},{"type":"Feature","geometry":{"type":"Point","coordinates":[23.091373,32.565188,0]},"properties":{"name":"زاوية أم الخفين","styleUrl":"#icon-503-DB4436-labelson-nodesc","icon-opacity":1,"icon-color":"#db4436","icon-scale":1.1,"icon-offset":[16,32],"icon-offset-units":["pixels","insetPixels"],"icon":"https://www.gstatic.com/mapspro/images/stock/503-wht-blank_maps.png"}},{"type":"Feature","geometry":{"type":"Point","coordinates":[23.080387,32.342986,0]},"properties":{"name":"وادي التميمي","styleUrl":"#icon-503-DB4436-labelson-nodesc","icon-opacity":1,"icon-color":"#db4436","icon-scale":1.1,"icon-offset":[16,32],"icon-offset-units":["pixels","insetPixels"],"icon":"https://www.gstatic.com/mapspro/images/stock/503-wht-blank_maps.png"}},{"type":"Feature","geometry":{"type":"Point","coordinates":[23.113518,32.308172,0]},"properties":{"name":"بردي الوحش","styleUrl":"#icon-503-DB4436-labelson-nodesc","icon-opacity":1,"icon-color":"#db4436","icon-scale":1.1,"icon-offset":[16,32],"icon-offset-units":["pixels","insetPixels"],"icon":"https://www.gstatic.com/mapspro/images/stock/503-wht-blank_maps.png"}},{"type":"Feature","geometry":{"type":"Point","coordinates":[25.10052,31.751617,0]},"properties":{"name":"آثار","styleUrl":"#icon-503-DB4436-labelson-nodesc","icon-opacity":1,"icon-color":"#db4436","icon-scale":1.1,"icon-offset":[16,32],"icon-offset-units":["pixels","insetPixels"],"icon":"https://www.gstatic.com/mapspro/images/stock/503-wht-blank_maps.png"}},{"type":"Feature","geometry":{"type":"Point","coordinates":[25.092795,31.749354,0]},"properties":{"name":"آثار","styleUrl":"#icon-503-DB4436-labelson-nodesc","icon-opacity":1,"icon-color":"#db4436","icon-scale":1.1,"icon-offset":[16,32],"icon-offset-units":["pixels","insetPixels"],"icon":"https://www.gstatic.com/mapspro/images/stock/503-wht-blank_maps.png"}},{"type":"Feature","geometry":{"type":"Point","coordinates":[24.790864,31.99461,0]},"properties":{"name":"وادي العين","styleUrl":"#icon-503-DB4436-labelson-nodesc","icon-opacity":1,"icon-color":"#db4436","icon-scale":1.1,"icon-offset":[16,32],"icon-offset-units":["pixels","insetPixels"],"icon":"https://www.gstatic.com/mapspro/images/stock/503-wht-blank_maps.png"}},{"type":"Feature","geometry":{"type":"Point","coordinates":[25.043369,31.829289,0]},"properties":{"name":"وادي بو روحي","styleUrl":"#icon-503-DB4436-labelson-nodesc","icon-opacity":1,"icon-color":"#db4436","icon-scale":1.1,"icon-offset":[16,32],"icon-offset-units":["pixels","insetPixels"],"icon":"https://www.gstatic.com/mapspro/images/stock/503-wht-blank_maps.png"}},{"type":"Feature","geometry":{"type":"Point","coordinates":[25.035604,31.839804,0]},"properties":{"name":"وادي القطارة الشرقي","styleUrl":"#icon-503-DB4436-labelson-nodesc","icon-opacity":1,"icon-color":"#db4436","icon-scale":1.1,"icon-offset":[16,32],"icon-offset-units":["pixels","insetPixels"],"icon":"https://www.gstatic.com/mapspro/images/stock/503-wht-blank_maps.png"}},{"type":"Feature","geometry":{"type":"Point","coordinates":[25.030889,31.885919,0]},"properties":{"name":"وادي الشقة","styleUrl":"#icon-503-DB4436-labelson-nodesc","icon-opacity":1,"icon-color":"#db4436","icon-scale":1.1,"icon-offset":[16,32],"icon-offset-units":["pixels","insetPixels"],"icon":"https://www.gstatic.com/mapspro/images/stock/503-wht-blank_maps.png"}},{"type":"Feature","geometry":{"type":"Point","coordinates":[25.027055,31.85418,0]},"properties":{"name":"وادي القطارة الغربي","styleUrl":"#icon-503-DB4436-labelson-nodesc","icon-opacity":1,"icon-color":"#db4436","icon-scale":1.1,"icon-offset":[16,32],"icon-offset-units":["pixels","insetPixels"],"icon":"https://www.gstatic.com/mapspro/images/stock/503-wht-blank_maps.png"}},{"type":"Feature","geometry":{"type":"Point","coordinates":[25.029338,31.850209,0]},"properties":{"name":"وادي الثابت","styleUrl":"#icon-503-DB4436-labelson-nodesc","icon-opacity":1,"icon-color":"#db4436","icon-scale":1.1,"icon-offset":[16,32],"icon-offset-units":["pixels","insetPixels"],"icon":"https://www.gstatic.com/mapspro/images/stock/503-wht-blank_maps.png"}},{"type":"Feature","geometry":{"type":"Point","coordinates":[25.007747,31.806631,0]},"properties":{"name":"كهف حقفة نعيمة","styleUrl":"#icon-503-DB4436-labelson-nodesc","icon-opacity":1,"icon-color":"#db4436","icon-scale":1.1,"icon-offset":[16,32],"icon-offset-units":["pixels","insetPixels"],"icon":"https://www.gstatic.com/mapspro/images/stock/503-wht-blank_maps.png"}},{"type":"Feature","geometry":{"type":"Point","coordinates":[25.009829,31.845097,0]},"properties":{"name":"كهف كرموسة القطارة","styleUrl":"#icon-503-DB4436-labelson-nodesc","icon-opacity":1,"icon-color":"#db4436","icon-scale":1.1,"icon-offset":[16,32],"icon-offset-units":["pixels","insetPixels"],"icon":"https://www.gstatic.com/mapspro/images/stock/503-wht-blank_maps.png"}},{"type":"Feature","geometry":{"type":"Point","coordinates":[25.025392,31.760364,0]},"properties":{"name":"كهف حقفة الكرموسة","styleUrl":"#icon-503-DB4436-labelson-nodesc","icon-opacity":1,"icon-color":"#db4436","icon-scale":1.1,"icon-offset":[16,32],"icon-offset-units":["pixels","insetPixels"],"icon":"https://www.gstatic.com/mapspro/images/stock/503-wht-blank_maps.png"}},{"type":"Feature","geometry":{"type":"Point","coordinates":[24.987631,31.77265,0]},"properties":{"name":"وادي الزيتون","styleUrl":"#icon-503-DB4436-labelson-nodesc","icon-opacity":1,"icon-color":"#db4436","icon-scale":1.1,"icon-offset":[16,32],"icon-offset-units":["pixels","insetPixels"],"icon":"https://www.gstatic.com/mapspro/images/stock/503-wht-blank_maps.png"}},{"type":"Feature","geometry":{"type":"Point","coordinates":[25.015161,31.723361,0]},"properties":{"name":"وادي شطيب الحقفة","styleUrl":"#icon-503-DB4436-labelson-nodesc","icon-opacity":1,"icon-color":"#db4436","icon-scale":1.1,"icon-offset":[16,32],"icon-offset-units":["pixels","insetPixels"],"icon":"https://www.gstatic.com/mapspro/images/stock/503-wht-blank_maps.png"}},{"type":"Feature","geometry":{"type":"Point","coordinates":[25.027739,31.7664,0]},"properties":{"name":"وادي الكرموسة","styleUrl":"#icon-503-DB4436-labelson-nodesc","icon-opacity":1,"icon-color":"#db4436","icon-scale":1.1,"icon-offset":[16,32],"icon-offset-units":["pixels","insetPixels"],"icon":"https://www.gstatic.com/mapspro/images/stock/503-wht-blank_maps.png"}},{"type":"Feature","geometry":{"type":"Point","coordinates":[25.123266,31.722822,0]},"properties":{"name":"وادي الحمر","styleUrl":"#icon-503-DB4436-labelson-nodesc","icon-opacity":1,"icon-color":"#db4436","icon-scale":1.1,"icon-offset":[16,32],"icon-offset-units":["pixels","insetPixels"],"icon":"https://www.gstatic.com/mapspro/images/stock/503-wht-blank_maps.png"}},{"type":"Feature","geometry":{"type":"Point","coordinates":[25.145129,31.676093,0]},"properties":{"name":"وادي بئر الرملة","styleUrl":"#icon-503-DB4436-labelson-nodesc","icon-opacity":1,"icon-color":"#db4436","icon-scale":1.1,"icon-offset":[16,32],"icon-offset-units":["pixels","insetPixels"],"icon":"https://www.gstatic.com/mapspro/images/stock/503-wht-blank_maps.png"}},{"type":"Feature","geometry":{"type":"Point","coordinates":[21.564942,32.697301,0]},"properties":{"name":"جسر وادي الكوف","styleUrl":"#icon-503-DB4436-labelson-nodesc","icon-opacity":1,"icon-color":"#db4436","icon-scale":1.1,"icon-offset":[16,32],"icon-offset-units":["pixels","insetPixels"],"icon":"https://www.gstatic.com/mapspro/images/stock/503-wht-blank_maps.png"}},{"type":"Feature","geometry":{"type":"Point","coordinates":[21.567364,32.694649,0]},"properties":{"name":"Point 138","styleUrl":"#icon-503-DB4436-labelson-nodesc","icon-opacity":1,"icon-color":"#db4436","icon-scale":1.1,"icon-offset":[16,32],"icon-offset-units":["pixels","insetPixels"],"icon":"https://www.gstatic.com/mapspro/images/stock/503-wht-blank_maps.png"}},{"type":"Feature","geometry":{"type":"Point","coordinates":[21.57353,32.698335,0]},"properties":{"name":"جسر وادي الكوف القديم","styleUrl":"#icon-503-DB4436-labelson-nodesc","icon-opacity":1,"icon-color":"#db4436","icon-scale":1.1,"icon-offset":[16,32],"icon-offset-units":["pixels","insetPixels"],"icon":"https://www.gstatic.com/mapspro/images/stock/503-wht-blank_maps.png"}},{"type":"Feature","geometry":{"type":"Point","coordinates":[21.414409,32.765094,0]},"properties":{"name":"وادي جرجار امه","styleUrl":"#icon-503-DB4436-labelson-nodesc","icon-opacity":1,"icon-color":"#db4436","icon-scale":1.1,"icon-offset":[16,32],"icon-offset-units":["pixels","insetPixels"],"icon":"https://www.gstatic.com/mapspro/images/stock/503-wht-blank_maps.png"}},{"type":"Feature","geometry":{"type":"Point","coordinates":[21.485803,32.823706,0]},"properties":{"name":"جزيرة خشم الكلب","description":"مساحتها 360 متر مربع‎","styleUrl":"#icon-503-DB4436-labelson","icon-opacity":1,"icon-color":"#db4436","icon-scale":1.1,"icon-offset":[16,32],"icon-offset-units":["pixels","insetPixels"],"icon":"https://www.gstatic.com/mapspro/images/stock/503-wht-blank_maps.png"}},{"type":"Feature","geometry":{"type":"Point","coordinates":[21.492927,32.823869,0]},"properties":{"name":"توعة الفكارين","styleUrl":"#icon-503-DB4436-labelson-nodesc","icon-opacity":1,"icon-color":"#db4436","icon-scale":1.1,"icon-offset":[16,32],"icon-offset-units":["pixels","insetPixels"],"icon":"https://www.gstatic.com/mapspro/images/stock/503-wht-blank_maps.png"}},{"type":"Feature","geometry":{"type":"Point","coordinates":[21.5417,32.859763,0]},"properties":{"name":"توعة المويلح","styleUrl":"#icon-503-DB4436-labelson-nodesc","icon-opacity":1,"icon-color":"#db4436","icon-scale":1.1,"icon-offset":[16,32],"icon-offset-units":["pixels","insetPixels"],"icon":"https://www.gstatic.com/mapspro/images/stock/503-wht-blank_maps.png"}},{"type":"Feature","geometry":{"type":"Point","coordinates":[21.565733,32.87692,0]},"properties":{"name":"توعة بست ","styleUrl":"#icon-503-DB4436-labelson-nodesc","icon-opacity":1,"icon-color":"#db4436","icon-scale":1.1,"icon-offset":[16,32],"icon-offset-units":["pixels","insetPixels"],"icon":"https://www.gstatic.com/mapspro/images/stock/503-wht-blank_maps.png"}},{"type":"Feature","geometry":{"type":"Point","coordinates":[21.620708,32.916341,0]},"properties":{"name":"مصيف الحمامة","styleUrl":"#icon-503-DB4436-labelson-nodesc","icon-opacity":1,"icon-color":"#db4436","icon-scale":1.1,"icon-offset":[16,32],"icon-offset-units":["pixels","insetPixels"],"icon":"https://www.gstatic.com/mapspro/images/stock/503-wht-blank_maps.png"}},{"type":"Feature","geometry":{"type":"Point","coordinates":[21.628089,32.914864,0]},"properties":{"name":"الحمامة","description":"الحمامة‎","styleUrl":"#icon-503-DB4436-labelson","icon-opacity":1,"icon-color":"#db4436","icon-scale":1.1,"icon-offset":[16,32],"icon-offset-units":["pixels","insetPixels"],"icon":"https://www.gstatic.com/mapspro/images/stock/503-wht-blank_maps.png"}},{"type":"Feature","geometry":{"type":"Point","coordinates":[21.620756,32.919683,0]},"properties":{"name":"جزيرة ملاصقة للشاطىء","description":"تبلغ مساحتها 280 متر مربع","styleUrl":"#icon-503-DB4436-labelson","icon-opacity":1,"icon-color":"#db4436","icon-scale":1.1,"icon-offset":[16,32],"icon-offset-units":["pixels","insetPixels"],"icon":"https://www.gstatic.com/mapspro/images/stock/503-wht-blank_maps.png"}},{"type":"Feature","geometry":{"type":"Point","coordinates":[21.63135,32.92632,0]},"properties":{"name":"رأس الحمامة","styleUrl":"#icon-503-DB4436-labelson-nodesc","icon-opacity":1,"icon-color":"#db4436","icon-scale":1.1,"icon-offset":[16,32],"icon-offset-units":["pixels","insetPixels"],"icon":"https://www.gstatic.com/mapspro/images/stock/503-wht-blank_maps.png"}},{"type":"Feature","geometry":{"type":"Point","coordinates":[21.632144,32.923996,0]},"properties":{"name":"شط الشمارية","styleUrl":"#icon-503-DB4436-labelson-nodesc","icon-opacity":1,"icon-color":"#db4436","icon-scale":1.1,"icon-offset":[16,32],"icon-offset-units":["pixels","insetPixels"],"icon":"https://www.gstatic.com/mapspro/images/stock/503-wht-blank_maps.png"}},{"type":"Feature","geometry":{"type":"Point","coordinates":[21.667807,32.928841,0]},"properties":{"name":"وادي استوة","styleUrl":"#icon-503-DB4436-labelson-nodesc","icon-opacity":1,"icon-color":"#db4436","icon-scale":1.1,"icon-offset":[16,32],"icon-offset-units":["pixels","insetPixels"],"icon":"https://www.gstatic.com/mapspro/images/stock/503-wht-blank_maps.png"}},{"type":"Feature","geometry":{"type":"Point","coordinates":[21.667957,32.915152,0]},"properties":{"name":"هبوط أرضي (هوا)","styleUrl":"#icon-503-DB4436-labelson-nodesc","icon-opacity":1,"icon-color":"#db4436","icon-scale":1.1,"icon-offset":[16,32],"icon-offset-units":["pixels","insetPixels"],"icon":"https://www.gstatic.com/mapspro/images/stock/503-wht-blank_maps.png"}},{"type":"Feature","geometry":{"type":"Point","coordinates":[21.706667,32.937774,0]},"properties":{"name":"وادي المملوح","styleUrl":"#icon-503-DB4436-labelson-nodesc","icon-opacity":1,"icon-color":"#db4436","icon-scale":1.1,"icon-offset":[16,32],"icon-offset-units":["pixels","insetPixels"],"icon":"https://www.gstatic.com/mapspro/images/stock/503-wht-blank_maps.png"}},{"type":"Feature","geometry":{"type":"Point","coordinates":[21.613872,32.909536,0]},"properties":{"name":"توعة أوثان","styleUrl":"#icon-503-DB4436-labelson-nodesc","icon-opacity":1,"icon-color":"#db4436","icon-scale":1.1,"icon-offset":[16,32],"icon-offset-units":["pixels","insetPixels"],"icon":"https://www.gstatic.com/mapspro/images/stock/503-wht-blank_maps.png"}},{"type":"Feature","geometry":{"type":"Point","coordinates":[21.858781,32.873082,0]},"properties":{"name":"حفرة المنصورة هوا بوثن‎","styleUrl":"#icon-503-DB4436-labelson-nodesc","icon-opacity":1,"icon-color":"#db4436","icon-scale":1.1,"icon-offset":[16,32],"icon-offset-units":["pixels","insetPixels"],"icon":"https://www.gstatic.com/mapspro/images/stock/503-wht-blank_maps.png"}},{"type":"Feature","geometry":{"type":"Point","coordinates":[21.754416,32.91436,0]},"properties":{"name":"عقبة حريرة","styleUrl":"#icon-503-DB4436-labelson-nodesc","icon-opacity":1,"icon-color":"#db4436","icon-scale":1.1,"icon-offset":[16,32],"icon-offset-units":["pixels","insetPixels"],"icon":"https://www.gstatic.com/mapspro/images/stock/503-wht-blank_maps.png"}},{"type":"Feature","geometry":{"type":"Point","coordinates":[21.800367,32.915652,0]},"properties":{"name":"أولاد نوح","styleUrl":"#icon-503-DB4436-labelson-nodesc","icon-opacity":1,"icon-color":"#db4436","icon-scale":1.1,"icon-offset":[16,32],"icon-offset-units":["pixels","insetPixels"],"icon":"https://www.gstatic.com/mapspro/images/stock/503-wht-blank_maps.png"}},{"type":"Feature","geometry":{"type":"Point","coordinates":[21.752222,32.927222,0]},"properties":{"name":"وادي سيدي عامر","styleUrl":"#icon-503-DB4436-labelson-nodesc","icon-opacity":1,"icon-color":"#db4436","icon-scale":1.1,"icon-offset":[16,32],"icon-offset-units":["pixels","insetPixels"],"icon":"https://www.gstatic.com/mapspro/images/stock/503-wht-blank_maps.png"}},{"type":"Feature","geometry":{"type":"Point","coordinates":[21.830714,32.908667,0]},"properties":{"name":"معطن عربية","styleUrl":"#icon-503-DB4436-labelson-nodesc","icon-opacity":1,"icon-color":"#db4436","icon-scale":1.1,"icon-offset":[16,32],"icon-offset-units":["pixels","insetPixels"],"icon":"https://www.gstatic.com/mapspro/images/stock/503-wht-blank_maps.png"}},{"type":"Feature","geometry":{"type":"Point","coordinates":[21.923304,32.893588,0]},"properties":{"name":"مصيف سوسة","styleUrl":"#icon-503-DB4436-labelson-nodesc","icon-opacity":1,"icon-color":"#db4436","icon-scale":1.1,"icon-offset":[16,32],"icon-offset-units":["pixels","insetPixels"],"icon":"https://www.gstatic.com/mapspro/images/stock/503-wht-blank_maps.png"}},{"type":"Feature","geometry":{"type":"Point","coordinates":[21.963816,32.90247,0]},"properties":{"name":"ميناء سوسة","styleUrl":"#icon-503-DB4436-labelson-nodesc","icon-opacity":1,"icon-color":"#db4436","icon-scale":1.1,"icon-offset":[16,32],"icon-offset-units":["pixels","insetPixels"],"icon":"https://www.gstatic.com/mapspro/images/stock/503-wht-blank_maps.png"}},{"type":"Feature","geometry":{"type":"Point","coordinates":[21.960125,32.90211,0]},"properties":{"name":"صخرة سوسة","styleUrl":"#icon-503-DB4436-labelson-nodesc","icon-opacity":1,"icon-color":"#db4436","icon-scale":1.1,"icon-offset":[16,32],"icon-offset-units":["pixels","insetPixels"],"icon":"https://www.gstatic.com/mapspro/images/stock/503-wht-blank_maps.png"}},{"type":"Feature","geometry":{"type":"Point","coordinates":[21.964379,32.903972,0]},"properties":{"name":"حوض كليوبترا أو القوليبة","styleUrl":"#icon-503-DB4436-labelson-nodesc","icon-opacity":1,"icon-color":"#db4436","icon-scale":1.1,"icon-offset":[16,32],"icon-offset-units":["pixels","insetPixels"],"icon":"https://www.gstatic.com/mapspro/images/stock/503-wht-blank_maps.png"}},{"type":"Feature","geometry":{"type":"Point","coordinates":[21.938463,32.902236,0]},"properties":{"name":"جزيرة سوسة1","description":"تبلغ مساحتها 270 متر مربع تقريباً، وتبعد عن الساحل مسافة 400 متر تقريباً‎‎","styleUrl":"#icon-503-DB4436-labelson","icon-opacity":1,"icon-color":"#db4436","icon-scale":1.1,"icon-offset":[16,32],"icon-offset-units":["pixels","insetPixels"],"icon":"https://www.gstatic.com/mapspro/images/stock/503-wht-blank_maps.png"}},{"type":"Feature","geometry":{"type":"Point","coordinates":[21.94113,32.902596,0]},"properties":{"name":"جزيرة سوسة 2","description":"تبلغ مساحتها 275 متر مربع، وتبعد عن الساحل مسافة 500 متر. ‎","styleUrl":"#icon-503-DB4436-labelson","icon-opacity":1,"icon-color":"#db4436","icon-scale":1.1,"icon-offset":[16,32],"icon-offset-units":["pixels","insetPixels"],"icon":"https://www.gstatic.com/mapspro/images/stock/503-wht-blank_maps.png"}},{"type":"Feature","geometry":{"type":"Point","coordinates":[21.928765,32.90038,0]},"properties":{"name":"صخرة","styleUrl":"#icon-503-DB4436-labelson-nodesc","icon-opacity":1,"icon-color":"#db4436","icon-scale":1.1,"icon-offset":[16,32],"icon-offset-units":["pixels","insetPixels"],"icon":"https://www.gstatic.com/mapspro/images/stock/503-wht-blank_maps.png"}},{"type":"Feature","geometry":{"type":"Point","coordinates":[21.930664,32.899867,0]},"properties":{"name":"صخرة","styleUrl":"#icon-503-DB4436-labelson-nodesc","icon-opacity":1,"icon-color":"#db4436","icon-scale":1.1,"icon-offset":[16,32],"icon-offset-units":["pixels","insetPixels"],"icon":"https://www.gstatic.com/mapspro/images/stock/503-wht-blank_maps.png"}},{"type":"Feature","geometry":{"type":"Point","coordinates":[22.071769,32.909622,0]},"properties":{"name":"وادي الحصين‎","styleUrl":"#icon-503-DB4436-labelson-nodesc","icon-opacity":1,"icon-color":"#db4436","icon-scale":1.1,"icon-offset":[16,32],"icon-offset-units":["pixels","insetPixels"],"icon":"https://www.gstatic.com/mapspro/images/stock/503-wht-blank_maps.png"}},{"type":"Feature","geometry":{"type":"Point","coordinates":[22.04771,32.906537,0]},"properties":{"name":"وادي الحيارة","styleUrl":"#icon-503-DB4436-labelson-nodesc","icon-opacity":1,"icon-color":"#db4436","icon-scale":1.1,"icon-offset":[16,32],"icon-offset-units":["pixels","insetPixels"],"icon":"https://www.gstatic.com/mapspro/images/stock/503-wht-blank_maps.png"}},{"type":"Feature","geometry":{"type":"Point","coordinates":[21.96308,32.895004,0]},"properties":{"name":"مصرف سوسة","styleUrl":"#icon-503-DB4436-labelson-nodesc","icon-opacity":1,"icon-color":"#db4436","icon-scale":1.1,"icon-offset":[16,32],"icon-offset-units":["pixels","insetPixels"],"icon":"https://www.gstatic.com/mapspro/images/stock/503-wht-blank_maps.png"}},{"type":"Feature","geometry":{"type":"Point","coordinates":[21.984989,32.892255,0]},"properties":{"name":"قلعة أثرية","styleUrl":"#icon-503-DB4436-labelson-nodesc","icon-opacity":1,"icon-color":"#db4436","icon-scale":1.1,"icon-offset":[16,32],"icon-offset-units":["pixels","insetPixels"],"icon":"https://www.gstatic.com/mapspro/images/stock/503-wht-blank_maps.png"}},{"type":"Feature","geometry":{"type":"Point","coordinates":[22.195746,32.880231,0]},"properties":{"name":"سفينة جانحة على الشاطىء","styleUrl":"#icon-503-DB4436-labelson-nodesc","icon-opacity":1,"icon-color":"#db4436","icon-scale":1.1,"icon-offset":[16,32],"icon-offset-units":["pixels","insetPixels"],"icon":"https://www.gstatic.com/mapspro/images/stock/503-wht-blank_maps.png"}},{"type":"Feature","geometry":{"type":"Point","coordinates":[25.103846,31.755028,0]},"properties":{"name":"منقار الرحيح","styleUrl":"#icon-503-DB4436-labelson-nodesc","icon-opacity":1,"icon-color":"#db4436","icon-scale":1.1,"icon-offset":[16,32],"icon-offset-units":["pixels","insetPixels"],"icon":"https://www.gstatic.com/mapspro/images/stock/503-wht-blank_maps.png"}},{"type":"Feature","geometry":{"type":"Point","coordinates":[25.035868,31.911443,0]},"properties":{"name":"شط المريسة","styleUrl":"#icon-503-DB4436-labelson-nodesc","icon-opacity":1,"icon-color":"#db4436","icon-scale":1.1,"icon-offset":[16,32],"icon-offset-units":["pixels","insetPixels"],"icon":"https://www.gstatic.com/mapspro/images/stock/503-wht-blank_maps.png"}},{"type":"Feature","geometry":{"type":"Point","coordinates":[25.040642,31.918975,0]},"properties":{"name":"رأس المريسة","styleUrl":"#icon-503-DB4436-labelson-nodesc","icon-opacity":1,"icon-color":"#db4436","icon-scale":1.1,"icon-offset":[16,32],"icon-offset-units":["pixels","insetPixels"],"icon":"https://www.gstatic.com/mapspro/images/stock/503-wht-blank_maps.png"}},{"type":"Feature","geometry":{"type":"Point","coordinates":[25.033797,31.935456,0]},"properties":{"name":"رأس بوشيكة","styleUrl":"#icon-503-DB4436-labelson-nodesc","icon-opacity":1,"icon-color":"#db4436","icon-scale":1.1,"icon-offset":[16,32],"icon-offset-units":["pixels","insetPixels"],"icon":"https://www.gstatic.com/mapspro/images/stock/503-wht-blank_maps.png"}},{"type":"Feature","geometry":{"type":"Point","coordinates":[21.999553,32.799069,0]},"properties":{"name":"هوا ارجاعي","styleUrl":"#icon-503-DB4436-labelson-nodesc","icon-opacity":1,"icon-color":"#db4436","icon-scale":1.1,"icon-offset":[16,32],"icon-offset-units":["pixels","insetPixels"],"icon":"https://www.gstatic.com/mapspro/images/stock/503-wht-blank_maps.png"}},{"type":"Feature","geometry":{"type":"Point","coordinates":[21.917222,32.825833,0]},"properties":{"name":"عين حبون","styleUrl":"#icon-503-DB4436-labelson-nodesc","icon-opacity":1,"icon-color":"#db4436","icon-scale":1.1,"icon-offset":[16,32],"icon-offset-units":["pixels","insetPixels"],"icon":"https://www.gstatic.com/mapspro/images/stock/503-wht-blank_maps.png"}},{"type":"Feature","geometry":{"type":"Point","coordinates":[21.897222,32.844167,0]},"properties":{"name":"مخطط منتجع سياحي","description":{"@type":"html","value":"يقع علي الطريق الرئيسي شحات سطية ( بمنطقة الروزات ) ضمن مخطط سياحي لاستراحات مطلة على منظر طبيعي للغابات الخضراء <br>حيث لا يبعد كثيرا على مدينة شحات الاثرية قوريني"},"styleUrl":"#icon-503-DB4436-labelson","icon-opacity":1,"icon-color":"#db4436","icon-scale":1.1,"icon-offset":[16,32],"icon-offset-units":["pixels","insetPixels"],"icon":"https://www.gstatic.com/mapspro/images/stock/503-wht-blank_maps.png"}},{"type":"Feature","geometry":{"type":"Point","coordinates":[21.841111,32.837222,0]},"properties":{"name":"مستشفى الصدرية","styleUrl":"#icon-503-DB4436-labelson-nodesc","icon-opacity":1,"icon-color":"#db4436","icon-scale":1.1,"icon-offset":[16,32],"icon-offset-units":["pixels","insetPixels"],"icon":"https://www.gstatic.com/mapspro/images/stock/503-wht-blank_maps.png"}},{"type":"Feature","geometry":{"type":"Point","coordinates":[21.853852,32.817168,0]},"properties":{"name":"معبد ديمترا","styleUrl":"#icon-503-DB4436-labelson-nodesc","icon-opacity":1,"icon-color":"#db4436","icon-scale":1.1,"icon-offset":[16,32],"icon-offset-units":["pixels","insetPixels"],"icon":"https://www.gstatic.com/mapspro/images/stock/503-wht-blank_maps.png"}},{"type":"Feature","geometry":{"type":"Point","coordinates":[21.850602,32.794486,0]},"properties":{"name":"موقع أثري","description":"كهف يقع جنوب شرق مدينة شحات","styleUrl":"#icon-503-DB4436-labelson","icon-opacity":1,"icon-color":"#db4436","icon-scale":1.1,"icon-offset":[16,32],"icon-offset-units":["pixels","insetPixels"],"icon":"https://www.gstatic.com/mapspro/images/stock/503-wht-blank_maps.png"}},{"type":"Feature","geometry":{"type":"Point","coordinates":[21.689722,32.731667,0]},"properties":{"name":"المكيمن","styleUrl":"#icon-503-DB4436-labelson-nodesc","icon-opacity":1,"icon-color":"#db4436","icon-scale":1.1,"icon-offset":[16,32],"icon-offset-units":["pixels","insetPixels"],"icon":"https://www.gstatic.com/mapspro/images/stock/503-wht-blank_maps.png"}},{"type":"Feature","geometry":{"type":"Point","coordinates":[21.762648,32.764527,0]},"properties":{"name":"مكتب بريد البيضاء‎","styleUrl":"#icon-503-DB4436-labelson-nodesc","icon-opacity":1,"icon-color":"#db4436","icon-scale":1.1,"icon-offset":[16,32],"icon-offset-units":["pixels","insetPixels"],"icon":"https://www.gstatic.com/mapspro/images/stock/503-wht-blank_maps.png"}},{"type":"Feature","geometry":{"type":"Point","coordinates":[21.766223,32.768782,0]},"properties":{"name":"حديقة الجلاء","styleUrl":"#icon-503-DB4436-labelson-nodesc","icon-opacity":1,"icon-color":"#db4436","icon-scale":1.1,"icon-offset":[16,32],"icon-offset-units":["pixels","insetPixels"],"icon":"https://www.gstatic.com/mapspro/images/stock/503-wht-blank_maps.png"}},{"type":"Feature","geometry":{"type":"Point","coordinates":[21.863222,32.816603,0]},"properties":{"name":"مبنى كشاف شحات","styleUrl":"#icon-503-DB4436-labelson-nodesc","icon-opacity":1,"icon-color":"#db4436","icon-scale":1.1,"icon-offset":[16,32],"icon-offset-units":["pixels","insetPixels"],"icon":"https://www.gstatic.com/mapspro/images/stock/503-wht-blank_maps.png"}},{"type":"Feature","geometry":{"type":"Point","coordinates":[21.864228,32.817846,0]},"properties":{"name":"متحف شحات","styleUrl":"#icon-503-DB4436-labelson-nodesc","icon-opacity":1,"icon-color":"#db4436","icon-scale":1.1,"icon-offset":[16,32],"icon-offset-units":["pixels","insetPixels"],"icon":"https://www.gstatic.com/mapspro/images/stock/503-wht-blank_maps.png"}},{"type":"Feature","geometry":{"type":"Point","coordinates":[22.178135,32.865044,0]},"properties":{"name":"كاف الجرف","styleUrl":"#icon-503-DB4436-labelson-nodesc","icon-opacity":1,"icon-color":"#db4436","icon-scale":1.1,"icon-offset":[16,32],"icon-offset-units":["pixels","insetPixels"],"icon":"https://www.gstatic.com/mapspro/images/stock/503-wht-blank_maps.png"}},{"type":"Feature","geometry":{"type":"Point","coordinates":[22.287848,32.871315,0]},"properties":{"name":"وادي الوسيطة","styleUrl":"#icon-503-DB4436-labelson-nodesc","icon-opacity":1,"icon-color":"#db4436","icon-scale":1.1,"icon-offset":[16,32],"icon-offset-units":["pixels","insetPixels"],"icon":"https://www.gstatic.com/mapspro/images/stock/503-wht-blank_maps.png"}},{"type":"Feature","geometry":{"type":"Point","coordinates":[22.228278,32.860026,0]},"properties":{"name":"وادي مرقس أو وادي الشواعر","styleUrl":"#icon-503-DB4436-labelson-nodesc","icon-opacity":1,"icon-color":"#db4436","icon-scale":1.1,"icon-offset":[16,32],"icon-offset-units":["pixels","insetPixels"],"icon":"https://www.gstatic.com/mapspro/images/stock/503-wht-blank_maps.png"}},{"type":"Feature","geometry":{"type":"Point","coordinates":[22.071748,32.908739,0]},"properties":{"name":"عين رأس الحليب","styleUrl":"#icon-503-DB4436-labelson-nodesc","icon-opacity":1,"icon-color":"#db4436","icon-scale":1.1,"icon-offset":[16,32],"icon-offset-units":["pixels","insetPixels"],"icon":"https://www.gstatic.com/mapspro/images/stock/503-wht-blank_maps.png"}},{"type":"Feature","geometry":{"type":"Point","coordinates":[22.051389,32.9,0]},"properties":{"name":"كهف هوا افطيح","styleUrl":"#icon-503-DB4436-labelson-nodesc","icon-opacity":1,"icon-color":"#db4436","icon-scale":1.1,"icon-offset":[16,32],"icon-offset-units":["pixels","insetPixels"],"icon":"https://www.gstatic.com/mapspro/images/stock/503-wht-blank_maps.png"}},{"type":"Feature","geometry":{"type":"Point","coordinates":[22.075267,32.911982,0]},"properties":{"name":"وادي الفلو","styleUrl":"#icon-503-DB4436-labelson-nodesc","icon-opacity":1,"icon-color":"#db4436","icon-scale":1.1,"icon-offset":[16,32],"icon-offset-units":["pixels","insetPixels"],"icon":"https://www.gstatic.com/mapspro/images/stock/503-wht-blank_maps.png"}},{"type":"Feature","geometry":{"type":"Point","coordinates":[22.093077,32.919151,0]},"properties":{"name":"وادي المهبول","styleUrl":"#icon-503-DB4436-labelson-nodesc","icon-opacity":1,"icon-color":"#db4436","icon-scale":1.1,"icon-offset":[16,32],"icon-offset-units":["pixels","insetPixels"],"icon":"https://www.gstatic.com/mapspro/images/stock/503-wht-blank_maps.png"}},{"type":"Feature","geometry":{"type":"Point","coordinates":[22.076297,32.897209,0]},"properties":{"name":"وادي بوقندول","styleUrl":"#icon-503-DB4436-labelson-nodesc","icon-opacity":1,"icon-color":"#db4436","icon-scale":1.1,"icon-offset":[16,32],"icon-offset-units":["pixels","insetPixels"],"icon":"https://www.gstatic.com/mapspro/images/stock/503-wht-blank_maps.png"}},{"type":"Feature","geometry":{"type":"Point","coordinates":[22.055354,32.905911,0]},"properties":{"name":"وادي الحلشوف","styleUrl":"#icon-503-DB4436-labelson-nodesc","icon-opacity":1,"icon-color":"#db4436","icon-scale":1.1,"icon-offset":[16,32],"icon-offset-units":["pixels","insetPixels"],"icon":"https://www.gstatic.com/mapspro/images/stock/503-wht-blank_maps.png"}},{"type":"Feature","geometry":{"type":"Point","coordinates":[22.059367,32.901894,0]},"properties":{"name":"وادي المالح","styleUrl":"#icon-503-DB4436-labelson-nodesc","icon-opacity":1,"icon-color":"#db4436","icon-scale":1.1,"icon-offset":[16,32],"icon-offset-units":["pixels","insetPixels"],"icon":"https://www.gstatic.com/mapspro/images/stock/503-wht-blank_maps.png"}},{"type":"Feature","geometry":{"type":"Point","coordinates":[22.043273,32.886164,0]},"properties":{"name":"وادي بوفراش","styleUrl":"#icon-503-DB4436-labelson-nodesc","icon-opacity":1,"icon-color":"#db4436","icon-scale":1.1,"icon-offset":[16,32],"icon-offset-units":["pixels","insetPixels"],"icon":"https://www.gstatic.com/mapspro/images/stock/503-wht-blank_maps.png"}},{"type":"Feature","geometry":{"type":"Point","coordinates":[22.046342,32.881858,0]},"properties":{"name":"وادي العين","styleUrl":"#icon-503-DB4436-labelson-nodesc","icon-opacity":1,"icon-color":"#db4436","icon-scale":1.1,"icon-offset":[16,32],"icon-offset-units":["pixels","insetPixels"],"icon":"https://www.gstatic.com/mapspro/images/stock/503-wht-blank_maps.png"}},{"type":"Feature","geometry":{"type":"Point","coordinates":[22.104664,32.871514,0]},"properties":{"name":"وادي استوة","styleUrl":"#icon-503-DB4436-labelson-nodesc","icon-opacity":1,"icon-color":"#db4436","icon-scale":1.1,"icon-offset":[16,32],"icon-offset-units":["pixels","insetPixels"],"icon":"https://www.gstatic.com/mapspro/images/stock/503-wht-blank_maps.png"}},{"type":"Feature","geometry":{"type":"Point","coordinates":[22.498552,32.838194,0]},"properties":{"name":"جزيرة ","description":"جزيرة صغيرة تبلغ مساحتها نحو 330 متر مربع، وتبعد عن الساحل نحو 3 كيلومترات.","styleUrl":"#icon-503-DB4436-labelson","icon-opacity":1,"icon-color":"#db4436","icon-scale":1.1,"icon-offset":[16,32],"icon-offset-units":["pixels","insetPixels"],"icon":"https://www.gstatic.com/mapspro/images/stock/503-wht-blank_maps.png"}},{"type":"Feature","geometry":{"type":"Point","coordinates":[22.50346,32.839072,0]},"properties":{"name":"جزيرة صغيرة","styleUrl":"#icon-503-DB4436-labelson-nodesc","icon-opacity":1,"icon-color":"#db4436","icon-scale":1.1,"icon-offset":[16,32],"icon-offset-units":["pixels","insetPixels"],"icon":"https://www.gstatic.com/mapspro/images/stock/503-wht-blank_maps.png"}},{"type":"Feature","geometry":{"type":"Point","coordinates":[22.543902,32.789151,0]},"properties":{"name":"وادي الناقة","styleUrl":"#icon-503-DB4436-labelson-nodesc","icon-opacity":1,"icon-color":"#db4436","icon-scale":1.1,"icon-offset":[16,32],"icon-offset-units":["pixels","insetPixels"],"icon":"https://www.gstatic.com/mapspro/images/stock/503-wht-blank_maps.png"}},{"type":"Feature","geometry":{"type":"Point","coordinates":[22.556863,32.793047,0]},"properties":{"name":"المدينة الرياضية درنة","styleUrl":"#icon-503-DB4436-labelson-nodesc","icon-opacity":1,"icon-color":"#db4436","icon-scale":1.1,"icon-offset":[16,32],"icon-offset-units":["pixels","insetPixels"],"icon":"https://www.gstatic.com/mapspro/images/stock/503-wht-blank_maps.png"}},{"type":"Feature","geometry":{"type":"Point","coordinates":[22.532498,32.803603,0]},"properties":{"name":"جزيرة","description":"جزيرة صغير تبلغ مساحتها 270 متر مربع، وتبعد عن الساحل نحو 150 متر تقريباً.‎","styleUrl":"#icon-503-DB4436-labelson","icon-opacity":1,"icon-color":"#db4436","icon-scale":1.1,"icon-offset":[16,32],"icon-offset-units":["pixels","insetPixels"],"icon":"https://www.gstatic.com/mapspro/images/stock/503-wht-blank_maps.png"}},{"type":"Feature","geometry":{"type":"Point","coordinates":[22.575059,32.788479,0]},"properties":{"name":"صخرة بحرية","styleUrl":"#icon-503-DB4436-labelson-nodesc","icon-opacity":1,"icon-color":"#db4436","icon-scale":1.1,"icon-offset":[16,32],"icon-offset-units":["pixels","insetPixels"],"icon":"https://www.gstatic.com/mapspro/images/stock/503-wht-blank_maps.png"}},{"type":"Feature","geometry":{"type":"Point","coordinates":[22.576894,32.78796,0]},"properties":{"name":"صخرة بحرية","styleUrl":"#icon-503-DB4436-labelson-nodesc","icon-opacity":1,"icon-color":"#db4436","icon-scale":1.1,"icon-offset":[16,32],"icon-offset-units":["pixels","insetPixels"],"icon":"https://www.gstatic.com/mapspro/images/stock/503-wht-blank_maps.png"}},{"type":"Feature","geometry":{"type":"Point","coordinates":[22.645279,32.773482,0]},"properties":{"name":"كورنيش درنة","styleUrl":"#icon-503-DB4436-labelson-nodesc","icon-opacity":1,"icon-color":"#db4436","icon-scale":1.1,"icon-offset":[16,32],"icon-offset-units":["pixels","insetPixels"],"icon":"https://www.gstatic.com/mapspro/images/stock/503-wht-blank_maps.png"}},{"type":"Feature","geometry":{"type":"Point","coordinates":[22.6461,32.77498,0]},"properties":{"name":"صخرة بحرية ","styleUrl":"#icon-503-DB4436-labelson-nodesc","icon-opacity":1,"icon-color":"#db4436","icon-scale":1.1,"icon-offset":[16,32],"icon-offset-units":["pixels","insetPixels"],"icon":"https://www.gstatic.com/mapspro/images/stock/503-wht-blank_maps.png"}},{"type":"Feature","geometry":{"type":"Point","coordinates":[22.643965,32.775111,0]},"properties":{"name":"رأس بوعزة","styleUrl":"#icon-503-DB4436-labelson-nodesc","icon-opacity":1,"icon-color":"#db4436","icon-scale":1.1,"icon-offset":[16,32],"icon-offset-units":["pixels","insetPixels"],"icon":"https://www.gstatic.com/mapspro/images/stock/503-wht-blank_maps.png"}},{"type":"Feature","geometry":{"type":"Point","coordinates":[22.640612,32.773293,0]},"properties":{"name":"مكتب بريد درنة","styleUrl":"#icon-503-DB4436-labelson-nodesc","icon-opacity":1,"icon-color":"#db4436","icon-scale":1.1,"icon-offset":[16,32],"icon-offset-units":["pixels","insetPixels"],"icon":"https://www.gstatic.com/mapspro/images/stock/503-wht-blank_maps.png"}},{"type":"Feature","geometry":{"type":"Point","coordinates":[22.64353,32.770821,0]},"properties":{"name":"مصرف الأمان","styleUrl":"#icon-503-DB4436-labelson-nodesc","icon-opacity":1,"icon-color":"#db4436","icon-scale":1.1,"icon-offset":[16,32],"icon-offset-units":["pixels","insetPixels"],"icon":"https://www.gstatic.com/mapspro/images/stock/503-wht-blank_maps.png"}},{"type":"Feature","geometry":{"type":"Point","coordinates":[22.644174,32.771462,0]},"properties":{"name":"مصرف الوحدة","styleUrl":"#icon-503-DB4436-labelson-nodesc","icon-opacity":1,"icon-color":"#db4436","icon-scale":1.1,"icon-offset":[16,32],"icon-offset-units":["pixels","insetPixels"],"icon":"https://www.gstatic.com/mapspro/images/stock/503-wht-blank_maps.png"}},{"type":"Feature","geometry":{"type":"Point","coordinates":[22.643246,32.768584,0]},"properties":{"name":"المصرف التجاري الوطني","styleUrl":"#icon-503-DB4436-labelson-nodesc","icon-opacity":1,"icon-color":"#db4436","icon-scale":1.1,"icon-offset":[16,32],"icon-offset-units":["pixels","insetPixels"],"icon":"https://www.gstatic.com/mapspro/images/stock/503-wht-blank_maps.png"}},{"type":"Feature","geometry":{"type":"Point","coordinates":[22.643874,32.764669,0]},"properties":{"name":"وادي درنة","styleUrl":"#icon-503-DB4436-labelson-nodesc","icon-opacity":1,"icon-color":"#db4436","icon-scale":1.1,"icon-offset":[16,32],"icon-offset-units":["pixels","insetPixels"],"icon":"https://www.gstatic.com/mapspro/images/stock/503-wht-blank_maps.png"}},{"type":"Feature","geometry":{"type":"Point","coordinates":[22.652371,32.763712,0]},"properties":{"name":"ميناء درنة","styleUrl":"#icon-503-DB4436-labelson-nodesc","icon-opacity":1,"icon-color":"#db4436","icon-scale":1.1,"icon-offset":[16,32],"icon-offset-units":["pixels","insetPixels"],"icon":"https://www.gstatic.com/mapspro/images/stock/503-wht-blank_maps.png"}},{"type":"Feature","geometry":{"type":"Point","coordinates":[22.654372,32.754139,0]},"properties":{"name":"فندق لؤلؤة درنة","description":{"@type":"html","value":"أفتتح الفندق الواقع على مقربة من الوسط التجاري لمدينة درنة، ومقابل الميناء، عام 2009 وتتوزع على طوابقه الخمسة، 124 غرفة وجناح، مزودة بخدمات الانترنت، وأجهزة التلفزيون، والتكييف، إلى جانب غرفتين مجهزتين لذوي الاحتياجات الخاصة.<br>كما يحتوي الفندق على مرافق خدمية تشمل، مغسلة، ونادي رياضي، ومحلات تجارية، ومراكز خدمات رجال الأعمال، بمافي ذلك قاعتين للمؤتمرات، تتسع الأولى لـ 24 شخصاً، والثانية 12 شخصاً، وقاعة مناسبات تتسع لـ 300 شخص، في حين تصل الطاقة الاستيعابية لمطعم الياسمين إلى 80 شخص، ومطعم رأس الهلال لـ 120 شخص، ومطعم الشلال 300 شخص، ومقهى مارة 50 شخصاً، فيما يستوعب المقهى الخارجي الصيفي نحو 100 شخص"},"styleUrl":"#icon-503-DB4436-labelson","icon-opacity":1,"icon-color":"#db4436","icon-scale":1.1,"icon-offset":[16,32],"icon-offset-units":["pixels","insetPixels"],"icon":"https://www.gstatic.com/mapspro/images/stock/503-wht-blank_maps.png"}},{"type":"Feature","geometry":{"type":"Point","coordinates":[22.649639,32.728722,0]},"properties":{"name":"عين شوشان","styleUrl":"#icon-503-DB4436-labelson-nodesc","icon-opacity":1,"icon-color":"#db4436","icon-scale":1.1,"icon-offset":[16,32],"icon-offset-units":["pixels","insetPixels"],"icon":"https://www.gstatic.com/mapspro/images/stock/503-wht-blank_maps.png"}},{"type":"Feature","geometry":{"type":"Point","coordinates":[22.63735,32.730758,0]},"properties":{"name":"عين الحاسة","styleUrl":"#icon-503-DB4436-labelson-nodesc","icon-opacity":1,"icon-color":"#db4436","icon-scale":1.1,"icon-offset":[16,32],"icon-offset-units":["pixels","insetPixels"],"icon":"https://www.gstatic.com/mapspro/images/stock/503-wht-blank_maps.png"}},{"type":"Feature","geometry":{"type":"Point","coordinates":[22.685909,32.74397,0]},"properties":{"name":"وادي البنت","styleUrl":"#icon-503-DB4436-labelson-nodesc","icon-opacity":1,"icon-color":"#db4436","icon-scale":1.1,"icon-offset":[16,32],"icon-offset-units":["pixels","insetPixels"],"icon":"https://www.gstatic.com/mapspro/images/stock/503-wht-blank_maps.png"}},{"type":"Feature","geometry":{"type":"Point","coordinates":[22.679805,32.732725,0]},"properties":{"name":"عين البنت","styleUrl":"#icon-503-DB4436-labelson-nodesc","icon-opacity":1,"icon-color":"#db4436","icon-scale":1.1,"icon-offset":[16,32],"icon-offset-units":["pixels","insetPixels"],"icon":"https://www.gstatic.com/mapspro/images/stock/503-wht-blank_maps.png"}},{"type":"Feature","geometry":{"type":"Point","coordinates":[23.121414,32.455025,0]},"properties":{"name":"مطار بمبة","styleUrl":"#icon-503-DB4436-labelson-nodesc","icon-opacity":1,"icon-color":"#db4436","icon-scale":1.1,"icon-offset":[16,32],"icon-offset-units":["pixels","insetPixels"],"icon":"https://www.gstatic.com/mapspro/images/stock/503-wht-blank_maps.png"}},{"type":"Feature","geometry":{"type":"Point","coordinates":[23.117037,32.479791,0]},"properties":{"name":"وادي الماجار","styleUrl":"#icon-503-DB4436-labelson-nodesc","icon-opacity":1,"icon-color":"#db4436","icon-scale":1.1,"icon-offset":[16,32],"icon-offset-units":["pixels","insetPixels"],"icon":"https://www.gstatic.com/mapspro/images/stock/503-wht-blank_maps.png"}},{"type":"Feature","geometry":{"type":"Point","coordinates":[23.110256,32.502379,0]},"properties":{"name":"وادي الشفار","styleUrl":"#icon-503-DB4436-labelson-nodesc","icon-opacity":1,"icon-color":"#db4436","icon-scale":1.1,"icon-offset":[16,32],"icon-offset-units":["pixels","insetPixels"],"icon":"https://www.gstatic.com/mapspro/images/stock/503-wht-blank_maps.png"}},{"type":"Feature","geometry":{"type":"Point","coordinates":[23.085451,32.525178,0]},"properties":{"name":"حطية أم الخفين","styleUrl":"#icon-503-DB4436-labelson-nodesc","icon-opacity":1,"icon-color":"#db4436","icon-scale":1.1,"icon-offset":[16,32],"icon-offset-units":["pixels","insetPixels"],"icon":"https://www.gstatic.com/mapspro/images/stock/503-wht-blank_maps.png"}},